{"type":"FeatureCollection","features":[{"type":"Feature","id":1,"geometry":{"type":"Point","coordinates":[114.15436000000011,22.249560000000031]},"properties":{"OBJECTID":1,"Field1":0,"GMID":"80hSCBcAOQ","Dataset":"Badminton Courts","Facility_Name":"Aberdeen Sports Centre","Address":"6/F Aberdeen Municipal Services Building, 203 Aberdeen Main Road, Aberdeen","District":"SOUTHERN","Northing":812311,"Easting":833947,"Latitude":22.249559999999999,"Longitude":114.15436}},{"type":"Feature","id":2,"geometry":{"type":"Point","coordinates":[114.15542000000005,22.244480000000067]},"properties":{"OBJECTID":2,"Field1":1,"GMID":"1cydaZdr9K","Dataset":"Badminton Courts","Facility_Name":"Ap Lei Chau Sports Centre","Address":"8 Hung Shing Street, Apleichau","District":"SOUTHERN","Northing":811748,"Easting":834056,"Latitude":22.244479999999999,"Longitude":114.15542000000001}},{"type":"Feature","id":3,"geometry":{"type":"Point","coordinates":[114.17091000000005,22.325590000000034]},"properties":{"OBJECTID":3,"Field1":2,"GMID":"oE9lBkYmBS","Dataset":"Badminton Courts","Facility_Name":"Boundary Street Sports Centre No. 1","Address":"200 Sai Yee Street, Mong Kok","District":"YAU TSIM MONG","Northing":820730,"Easting":835654,"Latitude":22.325589999999998,"Longitude":114.17091000000001}},{"type":"Feature","id":4,"geometry":{"type":"Point","coordinates":[114.1705300000001,22.326080000000047]},"properties":{"OBJECTID":4,"Field1":3,"GMID":"EdpKzCZswi","Dataset":"Badminton Courts","Facility_Name":"Boundary Street Sports Centre No. 2","Address":"200 Sai Yee Street, Mong Kok","District":"YAU TSIM MONG","Northing":820784,"Easting":835614,"Latitude":22.326080000000001,"Longitude":114.17053}},{"type":"Feature","id":5,"geometry":{"type":"Point","coordinates":[114.17484000000002,22.27141000000006]},"properties":{"OBJECTID":5,"Field1":4,"GMID":"xT2ewnA6PD","Dataset":"Badminton Courts","Facility_Name":"Bowen Road Temporary Playground","Address":"Bowen Road, Wan Chai, Hong Kong","District":"WAN CHAI","Northing":814730.19999999995,"Easting":836058.5,"Latitude":22.271409999999999,"Longitude":114.17484}},{"type":"Feature","id":6,"geometry":{"type":"Point","coordinates":[114.1683700000001,22.30108000000007]},"properties":{"OBJECTID":6,"Field1":5,"GMID":"5b3iQ7asKm","Dataset":"Badminton Courts","Facility_Name":"Canton Road Playground","Address":"176 Canton Road, Kowloon","District":"YAU TSIM MONG","Northing":818015.09999999998,"Easting":835391.5,"Latitude":22.301079999999999,"Longitude":114.16837}},{"type":"Feature","id":7,"geometry":{"type":"Point","coordinates":[114.23991000000001,22.264850000000024]},"properties":{"OBJECTID":7,"Field1":6,"GMID":"C2cPEbqrpV","Dataset":"Badminton Courts","Facility_Name":"Chai Wan Sports Centre","Address":"6 Yee Shun Street, Chai Wan","District":"EASTERN","Northing":814005,"Easting":842765,"Latitude":22.264849999999999,"Longitude":114.23990999999999}},{"type":"Feature","id":8,"geometry":{"type":"Point","coordinates":[114.1855700000001,22.372230000000059]},"properties":{"OBJECTID":8,"Field1":7,"GMID":"ExLfbnP6ic","Dataset":"Badminton Courts","Facility_Name":"Che Kung Temple Sports Centre","Address":"No. 10, Sha Tin Tau Road, Sha Tin","District":"SHA TIN","Northing":825894,"Easting":837164,"Latitude":22.372229999999998,"Longitude":114.18557}},{"type":"Feature","id":9,"geometry":{"type":"Point","coordinates":[114.03118000000006,22.20751000000007]},"properties":{"OBJECTID":9,"Field1":8,"GMID":"ZvenzVSC6B","Dataset":"Badminton Courts","Facility_Name":"Cheung Chau Sports Centre","Address":"Nam She Tong, Cheung Chau","District":"ISLANDS","Northing":807661,"Easting":821245,"Latitude":22.207509999999999,"Longitude":114.03118000000001}},{"type":"Feature","id":10,"geometry":{"type":"Point","coordinates":[114.10270000000003,22.36247000000003]},"properties":{"OBJECTID":10,"Field1":9,"GMID":"HxiWNNWV1l","Dataset":"Badminton Courts","Facility_Name":"Cheung Fat Sports Centre","Address":"4/F, Cheung Fat Shopping Centre, Cheung Fat Estate, Tsing Yi","District":"KWAI TSING","Northing":824815.80000000005,"Easting":828627.90000000002,"Latitude":22.362469999999998,"Longitude":114.1027}},{"type":"Feature","id":11,"geometry":{"type":"Point","coordinates":[114.15347000000008,22.337970000000041]},"properties":{"OBJECTID":11,"Field1":10,"GMID":"GEh3942DZP","Dataset":"Badminton Courts","Facility_Name":"Cheung Sha Wan Sports Centre","Address":"J/O Hing Wah Street & Cheung Sha Wan Road, Sham Shui Po","District":"SHAM SHUI PO","Northing":822100,"Easting":833857,"Latitude":22.337969999999999,"Longitude":114.15347}},{"type":"Feature","id":12,"geometry":{"type":"Point","coordinates":[114.19700000000012,22.337530000000072]},"properties":{"OBJECTID":12,"Field1":11,"GMID":"9WzOiNie74","Dataset":"Badminton Courts","Facility_Name":"Choi Hung Road Badminton Centre","Address":"Sheung Hei Street, Wong Tai Sin","District":"WONG TAI SIN","Northing":822052,"Easting":838341,"Latitude":22.337530000000001,"Longitude":114.197}},{"type":"Feature","id":13,"geometry":{"type":"Point","coordinates":[114.19645000000003,22.337130000000059]},"properties":{"OBJECTID":13,"Field1":12,"GMID":"QoeL48TDSd","Dataset":"Badminton Courts","Facility_Name":"Choi Hung Road Sports Centre","Address":"Sheung Hei Street, Wong Tai Sin","District":"WONG TAI SIN","Northing":822007,"Easting":838285,"Latitude":22.337129999999998,"Longitude":114.19645}},{"type":"Feature","id":14,"geometry":{"type":"Point","coordinates":[114.19351000000006,22.345520000000079]},"properties":{"OBJECTID":14,"Field1":13,"GMID":"mpiOqHLiP9","Dataset":"Badminton Courts","Facility_Name":"Chuk Yuen Sports Centre","Address":"Chuk Yuen North Estate, Chuk Yuen Road, Wong Tai Sin","District":"WONG TAI SIN","Northing":822937,"Easting":837982,"Latitude":22.34552,"Longitude":114.19351}},{"type":"Feature","id":15,"geometry":{"type":"Point","coordinates":[114.2205100000001,22.322470000000067]},"properties":{"OBJECTID":15,"Field1":14,"GMID":"nnTsvTWY08","Dataset":"Badminton Courts","Facility_Name":"Chun Wah Road Sports Centre","Address":"Top Floor, Lok Nga Court Carpark, 50 Chun Wah Road, Ngau Tau Kok, Kwun Tong","District":"KWUN TONG","Northing":820385,"Easting":840764,"Latitude":22.322469999999999,"Longitude":114.22051}},{"type":"Feature","id":16,"geometry":{"type":"Point","coordinates":[114.17070000000001,22.32078000000007]},"properties":{"OBJECTID":16,"Field1":15,"GMID":"xQJ66ObwoT","Dataset":"Badminton Courts","Facility_Name":"Fa Yuen Street Sports Centre","Address":"13/F Fa Yuen Street Municipal Services Building, 123A Fa Yuen Street, Mong Kok","District":"YAU TSIM MONG","Northing":820197,"Easting":835632,"Latitude":22.320779999999999,"Longitude":114.1707}},{"type":"Feature","id":17,"geometry":{"type":"Point","coordinates":[114.1811100000001,22.314830000000029]},"properties":{"OBJECTID":17,"Field1":16,"GMID":"2z7MIIefEy","Dataset":"Badminton Courts","Facility_Name":"Fat Kwong Street Sports Centre","Address":"18 Good Shepherd Street, Ho Man Tin","District":"KOWLOON CITY","Northing":819538,"Easting":836704,"Latitude":22.314830000000001,"Longitude":114.18111}},{"type":"Feature","id":18,"geometry":{"type":"Point","coordinates":[114.17136000000005,22.458290000000034]},"properties":{"OBJECTID":18,"Field1":17,"GMID":"R7UxGtPcMs","Dataset":"Badminton Courts","Facility_Name":"Fu Heng Sports Centre","Address":"1/F, Fu Heng Shopping Centre, Fu Heng Estate, Tai Po","District":"TAI PO","Northing":835424,"Easting":835700,"Latitude":22.458290000000002,"Longitude":114.17136000000001}},{"type":"Feature","id":19,"geometry":{"type":"Point","coordinates":[114.17412000000002,22.453880000000026]},"properties":{"OBJECTID":19,"Field1":18,"GMID":"vZEY1z8K27","Dataset":"Badminton Courts","Facility_Name":"Fu Shin Sports Centre","Address":"Multi Car-Park Building, Fu Shin Estate, Tai Po","District":"TAI PO","Northing":834936,"Easting":835984,"Latitude":22.453880000000002,"Longitude":114.17412}},{"type":"Feature","id":20,"geometry":{"type":"Point","coordinates":[114.03303000000005,22.44306000000006]},"properties":{"OBJECTID":20,"Field1":19,"GMID":"aO5EydtbDY","Dataset":"Badminton Courts","Facility_Name":"Fung Kam Street Sports Centre","Address":"20 Fung Yau Street North, Yuen Long","District":"YUEN LONG","Northing":833745,"Easting":821461,"Latitude":22.443059999999999,"Longitude":114.03303}},{"type":"Feature","id":21,"geometry":{"type":"Point","coordinates":[114.10269000000005,22.355480000000057]},"properties":{"OBJECTID":21,"Field1":20,"GMID":"X8hWihu6IQ","Dataset":"Badminton Courts","Facility_Name":"Fung Shue Wo Sports Centre","Address":"10 Fung Shue Wo Road, Tsing Yi Estate, Phase II, Tsing Yi","District":"KWAI TSING","Northing":824041.30000000005,"Easting":828627.09999999998,"Latitude":22.35548,"Longitude":114.10269}},{"type":"Feature","id":22,"geometry":{"type":"Point","coordinates":[114.26824000000011,22.317170000000033]},"properties":{"OBJECTID":22,"Field1":21,"GMID":"979T1t2VXr","Dataset":"Badminton Courts","Facility_Name":"Hang Hau Sports Centre","Address":"1-3/F, Sai Kung Tseung Kwan O Government Complex, 38 Pui Shing Road, Tseung Kwan O.","District":"SAI KUNG","Northing":819800.30000000005,"Easting":845681,"Latitude":22.317170000000001,"Longitude":114.26824000000001}},{"type":"Feature","id":23,"geometry":{"type":"Point","coordinates":[114.17671000000007,22.281270000000063]},"properties":{"OBJECTID":23,"Field1":22,"GMID":"g4IruLFo98","Dataset":"Badminton Courts","Facility_Name":"Harbour Road Sports Centre","Address":"27 Harbour Road, Wanchai","District":"WAN CHAI","Northing":815822,"Easting":836250.90000000002,"Latitude":22.281269999999999,"Longitude":114.17671}},{"type":"Feature","id":24,"geometry":{"type":"Point","coordinates":[114.22787000000005,22.416690000000074]},"properties":{"OBJECTID":24,"Field1":23,"GMID":"gxft8py3L7","Dataset":"Badminton Courts","Facility_Name":"Heng On Sports Centre","Address":"4/F., Heng On Commercial Centre, Heng On Estate, Ma On Shan, Sha Tin","District":"SHA TIN","Northing":830818,"Easting":841518,"Latitude":22.416689999999999,"Longitude":114.22787}},{"type":"Feature","id":25,"geometry":{"type":"Point","coordinates":[114.1713400000001,22.36307000000005]},"properties":{"OBJECTID":25,"Field1":24,"GMID":"VY4Pv069oT","Dataset":"Badminton Courts","Facility_Name":"Hin Keng Sports Centre","Address":"Hin Keng Commercial Centre, Hin Keng Estate, Sha Tin","District":"SHA TIN","Northing":824880,"Easting":835698,"Latitude":22.36307,"Longitude":114.17134}},{"type":"Feature","id":26,"geometry":{"type":"Point","coordinates":[114.22769000000005,22.319800000000043]},"properties":{"OBJECTID":26,"Field1":25,"GMID":"H4hm7tEIA0","Dataset":"Badminton Courts","Facility_Name":"Hiu Kwong Street Sports Centre","Address":"2 Hiu Kwong Street, Kwun Tong","District":"KWUN TONG","Northing":820089,"Easting":841504,"Latitude":22.319800000000001,"Longitude":114.22769}},{"type":"Feature","id":27,"geometry":{"type":"Point","coordinates":[114.15929000000006,22.277340000000038]},"properties":{"OBJECTID":27,"Field1":26,"GMID":"BzPifUxKW8","Dataset":"Badminton Courts","Facility_Name":"Hong Kong Park Sports Centre","Address":"29 Cotton Tree Drive, Central","District":"CENTRAL AND WESTERN","Northing":815387,"Easting":834456,"Latitude":22.277339999999999,"Longitude":114.15929}},{"type":"Feature","id":28,"geometry":{"type":"Point","coordinates":[114.18736000000001,22.307270000000074]},"properties":{"OBJECTID":28,"Field1":27,"GMID":"VfRzQDZfZm","Dataset":"Badminton Courts","Facility_Name":"Hung Hom Municipal Services Building Sports Centre","Address":"3-5/F Hung Hom Municipal Services Building, 11 Ma Tau Wai Road, Hung Hom, Kowloon","District":"KOWLOON CITY","Northing":818701,"Easting":837348,"Latitude":22.307269999999999,"Longitude":114.18736}},{"type":"Feature","id":29,"geometry":{"type":"Point","coordinates":[114.22229000000004,22.28472000000005]},"properties":{"OBJECTID":29,"Field1":28,"GMID":"Ks0Zeqlua7","Dataset":"Badminton Courts","Facility_Name":"Island East Sports Centre","Address":"52 Lei King Road, Sai Wan Ho","District":"EASTERN","Northing":816205,"Easting":840948,"Latitude":22.28472,"Longitude":114.22229}},{"type":"Feature","id":30,"geometry":{"type":"Point","coordinates":[114.19940000000008,22.292250000000024]},"properties":{"OBJECTID":30,"Field1":29,"GMID":"A6lQGbDvoH","Dataset":"Badminton Courts","Facility_Name":"Java Road Sports Centre","Address":"3/F, Java Road Municipal Services Building, 99 Java Road,North Point","District":"EASTERN","Northing":817038,"Easting":838589,"Latitude":22.292249999999999,"Longitude":114.1994}},{"type":"Feature","id":31,"geometry":{"type":"Point","coordinates":[114.20056000000011,22.335950000000025]},"properties":{"OBJECTID":31,"Field1":30,"GMID":"LeGOjuJhyu","Dataset":"Badminton Courts","Facility_Name":"Kai Tak East Sports Centre","Address":"30 Luk Hop Street, San Po Kong","District":"WONG TAI SIN","Northing":821877,"Easting":838708,"Latitude":22.33595,"Longitude":114.20056}},{"type":"Feature","id":32,"geometry":{"type":"Point","coordinates":[114.21124000000009,22.326860000000067]},"properties":{"OBJECTID":32,"Field1":31,"GMID":"IKnkK09azu","Dataset":"Badminton Courts","Facility_Name":"Kowloon Bay Sports Centre","Address":"15 Kai Lok Street, Kowloon Bay","District":"KWUN TONG","Northing":820871,"Easting":839808,"Latitude":22.32686,"Longitude":114.21124}},{"type":"Feature","id":33,"geometry":{"type":"Point","coordinates":[114.18889000000001,22.32964000000004]},"properties":{"OBJECTID":33,"Field1":32,"GMID":"oyzwPfmVAm","Dataset":"Badminton Courts","Facility_Name":"Kowloon City Sports Centre","Address":"3/F, Kln City Municipal Services Building, 100 Nga Tsin Wai Road, Kowloon City","District":"KOWLOON CITY","Northing":821178,"Easting":837506,"Latitude":22.329640000000001,"Longitude":114.18889}},{"type":"Feature","id":34,"geometry":{"type":"Point","coordinates":[114.16996000000006,22.301860000000033]},"properties":{"OBJECTID":34,"Field1":33,"GMID":"iYVv4IDneF","Dataset":"Badminton Courts","Facility_Name":"Kowloon Park Sports Centre","Address":"22 Austin Road, Tsim Sha Tsui","District":"YAU TSIM MONG","Northing":818101.59999999998,"Easting":835555.30000000005,"Latitude":22.301860000000001,"Longitude":114.16996}},{"type":"Feature","id":35,"geometry":{"type":"Point","coordinates":[114.12812000000008,22.362240000000043]},"properties":{"OBJECTID":35,"Field1":34,"GMID":"MHNvH0YpoV","Dataset":"Badminton Courts","Facility_Name":"Kwai Shing Circuit Playground","Address":"Kwai Shing Circuit, Kwai Chung, New Territories","District":"KWAI TSING","Northing":824789,"Easting":831246.90000000002,"Latitude":22.36224,"Longitude":114.12812}},{"type":"Feature","id":36,"geometry":{"type":"Point","coordinates":[114.16826000000003,22.304440000000056]},"properties":{"OBJECTID":36,"Field1":35,"GMID":"EHRIsWEa6z","Dataset":"Badminton Courts","Facility_Name":"Kwun Chung Sports Centre","Address":"5/F - 7/F, 17 Bowring Street, Jordon","District":"YAU TSIM MONG","Northing":818387,"Easting":835380,"Latitude":22.30444,"Longitude":114.16826}},{"type":"Feature","id":37,"geometry":{"type":"Point","coordinates":[114.13821000000007,22.340700000000027]},"properties":{"OBJECTID":37,"Field1":36,"GMID":"mswrFy80b3","Dataset":"Badminton Courts","Facility_Name":"Lai Chi Kok Park Sports Centre","Address":"1 Lai Wan Road, Lai Chi Kok, Kowloon","District":"SHAM SHUI PO","Northing":822403,"Easting":832285,"Latitude":22.340699999999998,"Longitude":114.13821}},{"type":"Feature","id":38,"geometry":{"type":"Point","coordinates":[114.12767000000008,22.349860000000035]},"properties":{"OBJECTID":38,"Field1":37,"GMID":"bbCDTEJM3N","Dataset":"Badminton Courts","Facility_Name":"Lai King Sports Centre","Address":"60 Lai Cho Road, Lai King, Kwai Chung","District":"KWAI TSING","Northing":823417.40000000002,"Easting":831200.09999999998,"Latitude":22.34986,"Longitude":114.12766999999999}},{"type":"Feature","id":39,"geometry":{"type":"Point","coordinates":[114.2388400000001,22.303860000000043]},"properties":{"OBJECTID":39,"Field1":38,"GMID":"pEIqhGVtHw","Dataset":"Badminton Courts","Facility_Name":"Lam Tin South Sports Centre","Address":"170 Pik Wan Road, Lam Tin, Kwun Tong","District":"KWUN TONG","Northing":818325,"Easting":842653,"Latitude":22.30386,"Longitude":114.23884}},{"type":"Feature","id":40,"geometry":{"type":"Point","coordinates":[114.23868000000004,22.292060000000049]},"properties":{"OBJECTID":40,"Field1":39,"GMID":"50LZ5tO27J","Dataset":"Badminton Courts","Facility_Name":"Lei Yue Mun Sports Centre","Address":"2/F to 5/F of Lei Yue Mun Municipal Services Building, Yau Tong, Kowloon","District":"KWUN TONG","Northing":817018,"Easting":842637,"Latitude":22.292059999999999,"Longitude":114.23868}},{"type":"Feature","id":41,"geometry":{"type":"Point","coordinates":[113.96508000000006,22.406600000000026]},"properties":{"OBJECTID":41,"Field1":40,"GMID":"XxdrxTnbR3","Dataset":"Badminton Courts","Facility_Name":"Leung Tin Sports Centre","Address":"4/F, Carpark Building, Tin King Estate, Tuen Mun","District":"TUEN MUN","Northing":829716,"Easting":814461,"Latitude":22.406600000000001,"Longitude":113.96508}},{"type":"Feature","id":42,"geometry":{"type":"Point","coordinates":[114.18178000000012,22.552500000000066]},"properties":{"OBJECTID":42,"Field1":41,"GMID":"G1tlrPeMXC","Dataset":"Badminton Courts","Facility_Name":"Lin Ma Hang Playground","Address":"Lin Ma Hang Village, Lin Ma Hang Road, Ta Kwu Ling","District":"NORTH","Northing":845857.19999999995,"Easting":836772.69999999995,"Latitude":22.552499999999998,"Longitude":114.18178}},{"type":"Feature","id":43,"geometry":{"type":"Point","coordinates":[114.17542000000003,22.278080000000045]},"properties":{"OBJECTID":43,"Field1":42,"GMID":"RWVzP9IL4W","Dataset":"Badminton Courts","Facility_Name":"Lockhart Road Sports Centre","Address":"10/F Lockhart Road Municipal Services Building, 225 Hennessy Road, Wanchai","District":"WAN CHAI","Northing":815468,"Easting":836118,"Latitude":22.278079999999999,"Longitude":114.17542}},{"type":"Feature","id":44,"geometry":{"type":"Point","coordinates":[114.02319000000011,22.450300000000027]},"properties":{"OBJECTID":44,"Field1":43,"GMID":"GkGGfEvTGQ","Dataset":"Badminton Courts","Facility_Name":"Long Ping Sports Centre","Address":"Unit 202, 2/F, Long Ping Commercial Centre, Long Ping Estate, Yuen Long","District":"YUEN LONG","Northing":834547,"Easting":820449,"Latitude":22.450299999999999,"Longitude":114.02319}},{"type":"Feature","id":45,"geometry":{"type":"Point","coordinates":[114.13045000000011,22.504980000000046]},"properties":{"OBJECTID":45,"Field1":44,"GMID":"UcROxefkA9","Dataset":"Badminton Courts","Facility_Name":"Lung Sum Avenue Sports Centre","Address":"155 Jockey Club Road, Sheung Shui","District":"NORTH","Northing":840595,"Easting":831491,"Latitude":22.50498,"Longitude":114.13045}},{"type":"Feature","id":46,"geometry":{"type":"Point","coordinates":[114.1770600000001,22.518210000000067]},"properties":{"OBJECTID":46,"Field1":45,"GMID":"76zQVj1HDx","Dataset":"Badminton Courts","Facility_Name":"Ma Mei Ha Playground","Address":"Ma Mei Ha, N.T.","District":"NORTH","Northing":842059.40000000002,"Easting":836287.09999999998,"Latitude":22.51821,"Longitude":114.17706}},{"type":"Feature","id":47,"geometry":{"type":"Point","coordinates":[114.22956000000011,22.426020000000051]},"properties":{"OBJECTID":47,"Field1":46,"GMID":"rOCazl5GqH","Dataset":"Badminton Courts","Facility_Name":"Ma On Shan Sports Centre","Address":"14 On Chun Street, Ma On Shan, Shatin","District":"SHA TIN","Northing":831852,"Easting":841692,"Latitude":22.426020000000001,"Longitude":114.22956000000001}},{"type":"Feature","id":48,"geometry":{"type":"Point","coordinates":[114.17550000000006,22.379080000000044]},"properties":{"OBJECTID":48,"Field1":47,"GMID":"v0sGoqLf5C","Dataset":"Badminton Courts","Facility_Name":"Mei Lam Sports Centre","Address":"Mei Lam Estate Phase III, Tai Wai, Sha Tin","District":"SHA TIN","Northing":826653,"Easting":836126,"Latitude":22.379079999999998,"Longitude":114.1755}},{"type":"Feature","id":49,"geometry":{"type":"Point","coordinates":[114.19012000000009,22.338310000000035]},"properties":{"OBJECTID":49,"Field1":48,"GMID":"ywCCmz58SW","Dataset":"Badminton Courts","Facility_Name":"Morse Park Sports Centre","Address":"Fung Mo Street, WTS","District":"WONG TAI SIN","Northing":822138,"Easting":837633,"Latitude":22.33831,"Longitude":114.19011999999999}},{"type":"Feature","id":50,"geometry":{"type":"Point","coordinates":[113.99648000000002,22.266990000000078]},"properties":{"OBJECTID":50,"Field1":49,"GMID":"nD4LTc5Mzo","Dataset":"Badminton Courts","Facility_Name":"Mui Wo Sports Centre","Address":"1/F, Mui Wo Municipal Services Building, 9 Ngan Shek Street, Lantau Island","District":"ISLANDS","Northing":814251,"Easting":817675,"Latitude":22.26699,"Longitude":113.99648000000001}},{"type":"Feature","id":51,"geometry":{"type":"Point","coordinates":[114.20964000000004,22.334550000000036]},"properties":{"OBJECTID":51,"Field1":50,"GMID":"L1BPUzftim","Dataset":"Badminton Courts","Facility_Name":"Ngau Chi Wan Sports Centre","Address":"1/F, Ngau Chi Wan Municipal Services Building, 11 Clear Water Bay Road, Kowloon","District":"WONG TAI SIN","Northing":821722,"Easting":839643,"Latitude":22.33455,"Longitude":114.20963999999999}},{"type":"Feature","id":52,"geometry":{"type":"Point","coordinates":[114.21638000000007,22.321480000000065]},"properties":{"OBJECTID":52,"Field1":51,"GMID":"HQm0TPc2QU","Dataset":"Badminton Courts","Facility_Name":"Ngau Tau Kok Road Sports Centre","Address":"3/F-4/F Ngau Tau Kok Municipal Services Building, 183 Ngau Tau Kok Road, Ngau Tau Kok","District":"KWUN TONG","Northing":820275,"Easting":840338,"Latitude":22.321480000000001,"Longitude":114.21638}},{"type":"Feature","id":53,"geometry":{"type":"Point","coordinates":[114.13756000000001,22.373870000000068]},"properties":{"OBJECTID":53,"Field1":52,"GMID":"0ydU9SRptM","Dataset":"Badminton Courts","Facility_Name":"North Kwai Chung Tang Shiu Kin Sports Centre","Address":"292 Wo Yi Hop Road, Kwai Chung","District":"KWAI TSING","Northing":826076.40000000002,"Easting":832218.80000000005,"Latitude":22.37387,"Longitude":114.13755999999999}},{"type":"Feature","id":54,"geometry":{"type":"Point","coordinates":[114.12952000000007,22.361120000000028]},"properties":{"OBJECTID":54,"Field1":53,"GMID":"HEqmpuhKek","Dataset":"Badminton Courts","Facility_Name":"Osman Ramju Sadick Memorial Sports Centre","Address":"176 Hing Fong Road, Kwai Chung","District":"KWAI TSING","Northing":824665,"Easting":831391,"Latitude":22.36112,"Longitude":114.12952}},{"type":"Feature","id":55,"geometry":{"type":"Point","coordinates":[114.13367000000005,22.494620000000054]},"properties":{"OBJECTID":55,"Field1":54,"GMID":"tBlXjUBWSX","Dataset":"Badminton Courts","Facility_Name":"Pak Fuk Children's Playground","Address":"Pak Wo Road, Fanling, N.T.","District":"NORTH","Northing":839448,"Easting":831822.69999999995,"Latitude":22.494620000000001,"Longitude":114.13367}},{"type":"Feature","id":56,"geometry":{"type":"Point","coordinates":[114.05920000000003,22.352450000000033]},"properties":{"OBJECTID":56,"Field1":55,"GMID":"yvWdVIYWsg","Dataset":"Badminton Courts","Facility_Name":"Pak Lam Road Garden","Address":"Tin Liu Sun Tsuen, Ma Wan, Tsuen Wan, N.T","District":"TSUEN WAN","Northing":823708.30000000005,"Easting":824146.5,"Latitude":22.352450000000001,"Longitude":114.0592}},{"type":"Feature","id":57,"geometry":{"type":"Point","coordinates":[114.16113000000007,22.329240000000027]},"properties":{"OBJECTID":57,"Field1":56,"GMID":"ZSyCSrj3cj","Dataset":"Badminton Courts","Facility_Name":"Pei Ho Street Sports Centre","Address":"5/F Pei Ho Street Municipal Services Building, 333 Ki Lung Street, Sham Shui Po","District":"SHAM SHUI PO","Northing":821134,"Easting":834646,"Latitude":22.329239999999999,"Longitude":114.16113}},{"type":"Feature","id":58,"geometry":{"type":"Point","coordinates":[114.03805000000011,22.284890000000075]},"properties":{"OBJECTID":58,"Field1":57,"GMID":"JwMz81ecy1","Dataset":"Badminton Courts","Facility_Name":"Peng Chau Sports Centre","Address":"Peng Chau Municipal Services Building, 6 Po Peng Street, Peng Chau","District":"ISLANDS","Northing":816229,"Easting":821962,"Latitude":22.284890000000001,"Longitude":114.03805}},{"type":"Feature","id":59,"geometry":{"type":"Point","coordinates":[114.00465000000008,22.447390000000041]},"properties":{"OBJECTID":59,"Field1":58,"GMID":"5LhIrRs6cq","Dataset":"Badminton Courts","Facility_Name":"Ping Shan Tin Shui Wai Sports Centre","Address":"1, Tsui Sing Road, Tin Shui Wai, Yuen Long","District":"YUEN LONG","Northing":834227.5,"Easting":818540.40000000002,"Latitude":22.447389999999999,"Longitude":114.00465}},{"type":"Feature","id":60,"geometry":{"type":"Point","coordinates":[114.21184000000005,22.332360000000051]},"properties":{"OBJECTID":60,"Field1":59,"GMID":"HsD0QozWNg","Dataset":"Badminton Courts","Facility_Name":"Ping Shek Playground","Address":"Choi Sek Lane, Kwun Tong","District":"KWUN TONG","Northing":821480,"Easting":839870,"Latitude":22.332360000000001,"Longitude":114.21184}},{"type":"Feature","id":61,"geometry":{"type":"Point","coordinates":[114.20159000000001,22.34546000000006]},"properties":{"OBJECTID":61,"Field1":60,"GMID":"jMjijMXhQk","Dataset":"Badminton Courts","Facility_Name":"Po Kong Village Road Sports Centre","Address":"120 Po Kong Village Road, Wong Tai Sin","District":"WONG TAI SIN","Northing":822930,"Easting":838814,"Latitude":22.345459999999999,"Longitude":114.20159}},{"type":"Feature","id":62,"geometry":{"type":"Point","coordinates":[114.25511000000006,22.325860000000034]},"properties":{"OBJECTID":62,"Field1":61,"GMID":"beRdrUruU3","Dataset":"Badminton Courts","Facility_Name":"Po Lam Sports Centre","Address":"Po Lam Estate, Tseung Kwan O, Sai Kung","District":"SAI KUNG","Northing":820761,"Easting":844328,"Latitude":22.325859999999999,"Longitude":114.25511}},{"type":"Feature","id":63,"geometry":{"type":"Point","coordinates":[114.15739000000008,22.338620000000049]},"properties":{"OBJECTID":63,"Field1":62,"GMID":"RnO78CrxyU","Dataset":"Badminton Courts","Facility_Name":"Po On Road Sports Centre","Address":"1/F & 2/F Po On Road Municipal Services Building, 325-329 Po On Road, Sham Shui Po","District":"SHAM SHUI PO","Northing":822172.30000000005,"Easting":834261,"Latitude":22.338619999999999,"Longitude":114.15739000000001}},{"type":"Feature","id":64,"geometry":{"type":"Point","coordinates":[114.12834000000009,22.496980000000065]},"properties":{"OBJECTID":64,"Field1":63,"GMID":"NaDMA7XHJI","Dataset":"Badminton Courts","Facility_Name":"Po Wing Road Sports Centre","Address":"19 Pak Wo Road, Sheung Shui, New Territories","District":"NORTH","Northing":839708.90000000002,"Easting":831273.90000000002,"Latitude":22.496980000000001,"Longitude":114.12833999999999}},{"type":"Feature","id":65,"geometry":{"type":"Point","coordinates":[114.02835000000005,22.20682000000005]},"properties":{"OBJECTID":65,"Field1":64,"GMID":"XBDqkvnJD0","Dataset":"Badminton Courts","Facility_Name":"Praya Street Sports Centre","Address":"1/F, Cheung Chau Municipal Services Building, 2 Tai Hing Tai Road, Cheung Chau","District":"ISLANDS","Northing":807585,"Easting":820953,"Latitude":22.20682,"Longitude":114.02835}},{"type":"Feature","id":66,"geometry":{"type":"Point","coordinates":[114.21179000000006,22.283690000000036]},"properties":{"OBJECTID":66,"Field1":65,"GMID":"edmvHp5opH","Dataset":"Badminton Courts","Facility_Name":"Quarry Bay Sports Centre","Address":"6/F & 7/F, Quarry Bay Municipal Services Building, 38 Quarry Bay Street, Quarry Bay","District":"EASTERN","Northing":816090,"Easting":839866,"Latitude":22.28369,"Longitude":114.21178999999999}},{"type":"Feature","id":67,"geometry":{"type":"Point","coordinates":[114.22272000000009,22.282050000000027]},"properties":{"OBJECTID":67,"Field1":66,"GMID":"Xnd3NJTxIV","Dataset":"Badminton Courts","Facility_Name":"Sai Wan Ho Sports Centre","Address":"2/F Sai Wan Ho Municipal Services Building, 111 Shau Kei Wan Road, Shaukiwan","District":"EASTERN","Northing":815909,"Easting":840993,"Latitude":22.282050000000002,"Longitude":114.22272}},{"type":"Feature","id":68,"geometry":{"type":"Point","coordinates":[114.16996000000006,22.337290000000053]},"properties":{"OBJECTID":68,"Field1":67,"GMID":"6FcFsDbhcX","Dataset":"Badminton Courts","Facility_Name":"Shek Kip Mei Park Sports Centre","Address":"290 Nam Cheong Street, Shek Kip Mei","District":"SHAM SHUI PO","Northing":822025,"Easting":835556,"Latitude":22.337289999999999,"Longitude":114.16996}},{"type":"Feature","id":69,"geometry":{"type":"Point","coordinates":[114.13605000000007,22.285720000000026]},"properties":{"OBJECTID":69,"Field1":68,"GMID":"RPCYeFHeZa","Dataset":"Badminton Courts","Facility_Name":"Shek Tong Tsui Sports Centre","Address":"5/F Shek Tong Tsui Municipal Services Building, 470 Queen's Road West","District":"CENTRAL AND WESTERN","Northing":816315,"Easting":832061,"Latitude":22.285720000000001,"Longitude":114.13605}},{"type":"Feature","id":70,"geometry":{"type":"Point","coordinates":[114.14963000000012,22.286000000000058]},"properties":{"OBJECTID":70,"Field1":69,"GMID":"GMT9taCJKG","Dataset":"Badminton Courts","Facility_Name":"Sheung Wan Sports Centre","Address":"11/F Sheung Wan Municipal Services Building, 345 Queen's Road Central","District":"CENTRAL AND WESTERN","Northing":816346,"Easting":833460,"Latitude":22.286000000000001,"Longitude":114.14963}},{"type":"Feature","id":71,"geometry":{"type":"Point","coordinates":[114.22428000000002,22.315660000000037]},"properties":{"OBJECTID":71,"Field1":70,"GMID":"FOoc6KrkiV","Dataset":"Badminton Courts","Facility_Name":"Shui Wo Street Sports Centre","Address":"8/F & 9/F,Shui Wo Street Municipal Services Building,9 Shui Wo Street, Kwun Tong,Kowloon.","District":"KWUN TONG","Northing":819631,"Easting":841152,"Latitude":22.315660000000001,"Longitude":114.22427999999999}},{"type":"Feature","id":72,"geometry":{"type":"Point","coordinates":[114.22544000000005,22.329690000000028]},"properties":{"OBJECTID":72,"Field1":71,"GMID":"kUp9po8NdI","Dataset":"Badminton Courts","Facility_Name":"Shun Lee Tsuen Sports Centre","Address":"Shun Lee Tsuen Road, Kwun Tong","District":"KWUN TONG","Northing":821184,"Easting":841271,"Latitude":22.329689999999999,"Longitude":114.22544000000001}},{"type":"Feature","id":73,"geometry":{"type":"Point","coordinates":[113.97920000000011,22.384250000000065]},"properties":{"OBJECTID":73,"Field1":72,"GMID":"uyoeQh3vef","Dataset":"Badminton Courts","Facility_Name":"Siu Lun Sports Centre","Address":"2-5/F Tuen Mun Siu Lun Government Complex, 19 Siu Lun Street, Tuen Mun, N.T.","District":"TUEN MUN","Northing":827239,"Easting":815911,"Latitude":22.384250000000002,"Longitude":113.97920000000001}},{"type":"Feature","id":74,"geometry":{"type":"Point","coordinates":[114.24956000000009,22.263650000000041]},"properties":{"OBJECTID":74,"Field1":73,"GMID":"oaEwG8zi3e","Dataset":"Badminton Courts","Facility_Name":"Siu Sai Wan Sports Centre","Address":"2/F - 4/F, Siu Sai Wan Complex, 15 Siu Sai Wan Road, Hong Kong","District":"EASTERN","Northing":813872.59999999998,"Easting":843759.5,"Latitude":22.263649999999998,"Longitude":114.24956}},{"type":"Feature","id":75,"geometry":{"type":"Point","coordinates":[114.12864000000002,22.281940000000077]},"properties":{"OBJECTID":75,"Field1":74,"GMID":"GmqL1kydga","Dataset":"Badminton Courts","Facility_Name":"Smithfield Sports Centre","Address":"4/F, Smithfield Municipal Services Building, 12K Smithfield Road, Kennedy Town, Western","District":"CENTRAL AND WESTERN","Northing":815897,"Easting":831297,"Latitude":22.281939999999999,"Longitude":114.12864}},{"type":"Feature","id":76,"geometry":{"type":"Point","coordinates":[114.21221000000003,22.219160000000045]},"properties":{"OBJECTID":76,"Field1":75,"GMID":"NEhICEQrVe","Dataset":"Badminton Courts","Facility_Name":"Stanley Sports Centre","Address":"U/G, 6 Stanley Maket Road, Stanley","District":"SOUTHERN","Northing":808944,"Easting":839911,"Latitude":22.219159999999999,"Longitude":114.21221}},{"type":"Feature","id":77,"geometry":{"type":"Point","coordinates":[114.14349000000004,22.290170000000046]},"properties":{"OBJECTID":77,"Field1":76,"GMID":"vx49I0ELOm","Dataset":"Badminton Courts","Facility_Name":"Sun Yat Sen Memorial Park Sports Centre","Address":"18 Eastern Street North, Sai Ying Pun","District":"CENTRAL AND WESTERN","Northing":816808,"Easting":832828,"Latitude":22.29017,"Longitude":114.14349}},{"type":"Feature","id":78,"geometry":{"type":"Point","coordinates":[114.15391000000011,22.530910000000063]},"properties":{"OBJECTID":78,"Field1":77,"GMID":"nQlimX0xHq","Dataset":"Badminton Courts","Facility_Name":"Ta Kwu Ling Playground","Address":"Ping Che Road, Ta Kwu Ling, N.T.","District":"NORTH","Northing":843465.90000000002,"Easting":833905.69999999995,"Latitude":22.530909999999999,"Longitude":114.15391}},{"type":"Feature","id":79,"geometry":{"type":"Point","coordinates":[113.97307000000001,22.403380000000027]},"properties":{"OBJECTID":79,"Field1":78,"GMID":"F2yrtLLjXO","Dataset":"Badminton Courts","Facility_Name":"Tai Hing Sports Centre","Address":"38 Tsing Chung Koon Road, Tuen Mun","District":"TUEN MUN","Northing":829358,"Easting":815282.90000000002,"Latitude":22.403379999999999,"Longitude":113.97307000000001}},{"type":"Feature","id":80,"geometry":{"type":"Point","coordinates":[114.02697000000001,22.44518000000005]},"properties":{"OBJECTID":80,"Field1":79,"GMID":"BnKQ7mRNFf","Dataset":"Badminton Courts","Facility_Name":"Tai Kiu Market Sitting-out Area","Address":"Tai Kiu Market, Kiu Lok Square, Yuen Long","District":"YUEN LONG","Northing":833979.59999999998,"Easting":820837.59999999998,"Latitude":22.445180000000001,"Longitude":114.02697000000001}},{"type":"Feature","id":81,"geometry":{"type":"Point","coordinates":[114.16279000000009,22.321880000000078]},"properties":{"OBJECTID":81,"Field1":80,"GMID":"jn4MU7P4XN","Dataset":"Badminton Courts","Facility_Name":"Tai Kok Tsui Sports Centre","Address":"5-7/F., Tai Kok Tsui Municipal Services Building, 63 Fuk Tsun Street, Tai Kok Tsui","District":"YAU TSIM MONG","Northing":820319,"Easting":834817,"Latitude":22.32188,"Longitude":114.16279}},{"type":"Feature","id":82,"geometry":{"type":"Point","coordinates":[114.16658000000007,22.446120000000064]},"properties":{"OBJECTID":82,"Field1":81,"GMID":"OiNS4XSkjd","Dataset":"Badminton Courts","Facility_Name":"Tai Po Hui Sports Centre","Address":"6/F Multi Car-Park Building, Fu Shin Estate, 8 Heung Sze Wui Street, Tai Po","District":"TAI PO","Northing":834077,"Easting":835208,"Latitude":22.446120000000001,"Longitude":114.16658}},{"type":"Feature","id":83,"geometry":{"type":"Point","coordinates":[114.1649000000001,22.455340000000035]},"properties":{"OBJECTID":83,"Field1":82,"GMID":"fqPlVbs4pZ","Dataset":"Badminton Courts","Facility_Name":"Tai Po Sports Centre","Address":"13 Ting Tai Road, Tai Po","District":"TAI PO","Northing":835097,"Easting":835035,"Latitude":22.45534,"Longitude":114.1649}},{"type":"Feature","id":84,"geometry":{"type":"Point","coordinates":[114.12329000000011,22.500290000000064]},"properties":{"OBJECTID":84,"Field1":83,"GMID":"7jzyallSK9","Dataset":"Badminton Courts","Facility_Name":"Tai Tau Leng Sitting-out Area","Address":"Tai Tau Leng Village, Po Shek Wu Road, Sheung Shui, N.T.","District":"NORTH","Northing":840075.69999999995,"Easting":830754.5,"Latitude":22.50029,"Longitude":114.12329}},{"type":"Feature","id":85,"geometry":{"type":"Point","coordinates":[114.12495000000001,22.370200000000068]},"properties":{"OBJECTID":85,"Field1":84,"GMID":"3FeNLYvXCy","Dataset":"Badminton Courts","Facility_Name":"Tai Wo Hau Sports Centre","Address":"39 Tai Ha Street, Tai Wo Hau, Kwai Chung","District":"KWAI TSING","Northing":825670.09999999998,"Easting":830920.19999999995,"Latitude":22.370200000000001,"Longitude":114.12495}},{"type":"Feature","id":86,"geometry":{"type":"Point","coordinates":[114.1605800000001,22.451000000000079]},"properties":{"OBJECTID":86,"Field1":85,"GMID":"GTuuq81NTF","Dataset":"Badminton Courts","Facility_Name":"Tai Wo Sports Centre","Address":"Podium Level, Tai Wo Shopping Centre, Tai Wo Estate, Tai Po","District":"TAI PO","Northing":834617,"Easting":834591,"Latitude":22.451000000000001,"Longitude":114.16058}},{"type":"Feature","id":87,"geometry":{"type":"Point","coordinates":[113.96470000000011,22.378690000000063]},"properties":{"OBJECTID":87,"Field1":86,"GMID":"Y4Fq1FJuTb","Dataset":"Badminton Courts","Facility_Name":"The Jockey Club Tuen Mun Butterfly Beach Sports Centre","Address":"Wu Shan Road, Tuen Mun","District":"TUEN MUN","Northing":826625,"Easting":814417,"Latitude":22.378689999999999,"Longitude":113.96469999999999}},{"type":"Feature","id":88,"geometry":{"type":"Point","coordinates":[113.99702000000002,22.464800000000025]},"properties":{"OBJECTID":88,"Field1":87,"GMID":"iovenAqhn8","Dataset":"Badminton Courts","Facility_Name":"Tin Fai Road Sports Centre","Address":"No. 63, Tin Shui Road, Tin Shui Wai, Yuen Long, N.T.","District":"YUEN LONG","Northing":836155.59999999998,"Easting":817757.09999999998,"Latitude":22.4648,"Longitude":113.99702000000001}},{"type":"Feature","id":89,"geometry":{"type":"Point","coordinates":[114.1336500000001,22.503320000000031]},"properties":{"OBJECTID":89,"Field1":88,"GMID":"Ut6jiYpSXV","Dataset":"Badminton Courts","Facility_Name":"Tin Ping Sports Centre","Address":"3/F., Tin Ping Estate Shopping Centre, Tin Ping Estate, North","District":"NORTH","Northing":840411,"Easting":831820,"Latitude":22.503319999999999,"Longitude":114.13365}},{"type":"Feature","id":90,"geometry":{"type":"Point","coordinates":[113.9979800000001,22.454770000000053]},"properties":{"OBJECTID":90,"Field1":89,"GMID":"NA453y8t3Y","Dataset":"Badminton Courts","Facility_Name":"Tin Shui Sports Centre","Address":"7 Tin Shui Road, Tin Shui Wai, Yuen Long","District":"YUEN LONG","Northing":835045,"Easting":817854,"Latitude":22.45477,"Longitude":113.99798}},{"type":"Feature","id":91,"geometry":{"type":"Point","coordinates":[114.00654000000009,22.455010000000073]},"properties":{"OBJECTID":91,"Field1":90,"GMID":"s82ZhTsvAe","Dataset":"Badminton Courts","Facility_Name":"Tin Shui Wai Sports Centre","Address":"1 Tin Pak Road, Tin Shui Wai, Yuen Long","District":"YUEN LONG","Northing":835071,"Easting":818736,"Latitude":22.455010000000001,"Longitude":114.00654}},{"type":"Feature","id":92,"geometry":{"type":"Point","coordinates":[114.19012000000009,22.318850000000054]},"properties":{"OBJECTID":92,"Field1":91,"GMID":"4Sk1jN8EAV","Dataset":"Badminton Courts","Facility_Name":"To Kwa Wan Sports Centre","Address":"66 Ha Heung Road, To Kwa Wan","District":"KOWLOON CITY","Northing":819983,"Easting":837633,"Latitude":22.318850000000001,"Longitude":114.19011999999999}},{"type":"Feature","id":93,"geometry":{"type":"Point","coordinates":[114.18972000000008,22.374300000000062]},"properties":{"OBJECTID":93,"Field1":92,"GMID":"MqjUqiMeNr","Dataset":"Badminton Courts","Facility_Name":"Tsang Tai UK Recreation Ground","Address":"Sha Kok Street, Sha Tin","District":"SHA TIN","Northing":826123.30000000005,"Easting":837591,"Latitude":22.374300000000002,"Longitude":114.18971999999999}},{"type":"Feature","id":94,"geometry":{"type":"Point","coordinates":[114.25963000000002,22.317100000000039]},"properties":{"OBJECTID":94,"Field1":93,"GMID":"oJ7gIWYsqo","Dataset":"Badminton Courts","Facility_Name":"Tseung Kwan O Sports Centre","Address":"9 Wan Lung Road, Tseung Kwan O, Sai Kung","District":"SAI KUNG","Northing":819792,"Easting":844794,"Latitude":22.3171,"Longitude":114.25963}},{"type":"Feature","id":95,"geometry":{"type":"Point","coordinates":[114.10207000000003,22.351540000000057]},"properties":{"OBJECTID":95,"Field1":94,"GMID":"t37zFVeYqt","Dataset":"Badminton Courts","Facility_Name":"Tsing Yi Southwest Sports Centre","Address":"70 Chung Mei Road, Tsing Yi, New,Territories","District":"KWAI TSING","Northing":823605.40000000002,"Easting":828562.40000000002,"Latitude":22.35154,"Longitude":114.10207}},{"type":"Feature","id":96,"geometry":{"type":"Point","coordinates":[114.10651000000007,22.354210000000023]},"properties":{"OBJECTID":96,"Field1":95,"GMID":"6kKCJuGvX9","Dataset":"Badminton Courts","Facility_Name":"Tsing Yi Sports Centre","Address":"2/F, Tsing Yi Municipal Services Building, 38 Tsing Luk Street, Tsing Yi","District":"KWAI TSING","Northing":823899.90000000002,"Easting":829020,"Latitude":22.354209999999998,"Longitude":114.10651}},{"type":"Feature","id":97,"geometry":{"type":"Point","coordinates":[114.11124000000007,22.377670000000023]},"properties":{"OBJECTID":97,"Field1":96,"GMID":"MfzSmEq1q4","Dataset":"Badminton Courts","Facility_Name":"Tsuen King Circuit Sports Centre","Address":"38 Mei Wan Street, Tsuen King Circuit, Tsuen Wan","District":"TSUEN WAN","Northing":826498,"Easting":829509,"Latitude":22.377669999999998,"Longitude":114.11124}},{"type":"Feature","id":98,"geometry":{"type":"Point","coordinates":[114.11264000000006,22.36596000000003]},"properties":{"OBJECTID":98,"Field1":97,"GMID":"uKWfLywRHi","Dataset":"Badminton Courts","Facility_Name":"Tsuen Wan Sports Centre","Address":"53 Wing Shun Street, Tsuen Wan, N.T.","District":"TSUEN WAN","Northing":825200.69999999995,"Easting":829651.80000000005,"Latitude":22.365960000000001,"Longitude":114.11264}},{"type":"Feature","id":99,"geometry":{"type":"Point","coordinates":[114.1005100000001,22.370480000000043]},"properties":{"OBJECTID":99,"Field1":98,"GMID":"1m8aWUApNi","Dataset":"Badminton Courts","Facility_Name":"Tsuen Wan West Sports Centre","Address":"68 Hoi On Road, Tsuen Wan","District":"TSUEN WAN","Northing":825702,"Easting":828403,"Latitude":22.370480000000001,"Longitude":114.10051}},{"type":"Feature","id":100,"geometry":{"type":"Point","coordinates":[114.24953000000005,22.322230000000047]},"properties":{"OBJECTID":100,"Field1":99,"GMID":"uLu7BSox9C","Dataset":"Badminton Courts","Facility_Name":"Tsui Lam Sports Centre","Address":"Tsui Lam Estate, Sai Kung","District":"SAI KUNG","Northing":820359,"Easting":843754,"Latitude":22.322230000000001,"Longitude":114.24952999999999}},{"type":"Feature","id":101,"geometry":{"type":"Point","coordinates":[113.9734400000001,22.391930000000059]},"properties":{"OBJECTID":101,"Field1":100,"GMID":"anub7Fp9zb","Dataset":"Badminton Courts","Facility_Name":"Tuen Mun Park","Address":"Tuen Mun Heung Sze Wui Road, Tuen Mun","District":"TUEN MUN","Northing":828090.19999999995,"Easting":815319.5,"Latitude":22.391929999999999,"Longitude":113.97344}},{"type":"Feature","id":102,"geometry":{"type":"Point","coordinates":[113.94383000000005,22.290590000000066]},"properties":{"OBJECTID":102,"Field1":101,"GMID":"dHsPb8snlq","Dataset":"Badminton Courts","Facility_Name":"Tung Chung Man Tung Road Sports Centre","Address":"G/F., Tung Chung Municipal Services Building, 39 Man Tung Road, Tung Chung","District":"ISLANDS","Northing":816872,"Easting":812252.69999999995,"Latitude":22.290590000000002,"Longitude":113.94383000000001}},{"type":"Feature","id":103,"geometry":{"type":"Point","coordinates":[114.10077000000001,22.508610000000033]},"properties":{"OBJECTID":103,"Field1":102,"GMID":"Ug3cqfDonG","Dataset":"Badminton Courts","Facility_Name":"Tung Fong Children's Playground","Address":"Tong Fong, Kwu Tung, Sheung Shui, N.T.","District":"NORTH","Northing":840998,"Easting":828437.19999999995,"Latitude":22.508610000000001,"Longitude":114.10077}},{"type":"Feature","id":104,"geometry":{"type":"Point","coordinates":[114.12249000000008,22.372320000000059]},"properties":{"OBJECTID":104,"Field1":103,"GMID":"UioMm8tCCe","Dataset":"Badminton Courts","Facility_Name":"Wai Tsuen Sports Centre","Address":"6 Miu Kong Street, Tsuen Wan","District":"TSUEN WAN","Northing":825905,"Easting":830667,"Latitude":22.372319999999998,"Longitude":114.12249}},{"type":"Feature","id":105,"geometry":{"type":"Point","coordinates":[114.14314000000002,22.484750000000076]},"properties":{"OBJECTID":105,"Field1":104,"GMID":"9r9fhG3Vwe","Dataset":"Badminton Courts","Facility_Name":"Wo Hing Sports Centre","Address":"8 Wo Ming Lane, Fanling","District":"NORTH","Northing":838355,"Easting":832796,"Latitude":22.484749999999998,"Longitude":114.14314}},{"type":"Feature","id":106,"geometry":{"type":"Point","coordinates":[114.17339000000004,22.249740000000031]},"properties":{"OBJECTID":106,"Field1":105,"GMID":"lDrOfHr49Y","Dataset":"Badminton Courts","Facility_Name":"Wong Chuk Hang Sports Centre","Address":"168 Wong Chuk Hang Road, Aberdeen","District":"SOUTHERN","Northing":812330,"Easting":835909,"Latitude":22.249739999999999,"Longitude":114.17339}},{"type":"Feature","id":107,"geometry":{"type":"Point","coordinates":[114.1857500000001,22.268950000000075]},"properties":{"OBJECTID":107,"Field1":106,"GMID":"135zl6wZho","Dataset":"Badminton Courts","Facility_Name":"Wong Nai Chung Sports Centre","Address":"4/F,Wong Nai Chung Municipal Services Building, 2 Yuk Sau Street, Happy Valley","District":"WAN CHAI","Northing":814457,"Easting":837183,"Latitude":22.26895,"Longitude":114.18575}},{"type":"Feature","id":108,"geometry":{"type":"Point","coordinates":[113.97351000000003,22.386870000000044]},"properties":{"OBJECTID":108,"Field1":107,"GMID":"ZfbigGk3eG","Dataset":"Badminton Courts","Facility_Name":"Yau Oi Sitting-out Area","Address":"Yau Oi Estate, Tuen Mun","District":"TUEN MUN","Northing":827529.30000000005,"Easting":815325.80000000005,"Latitude":22.386869999999998,"Longitude":113.97351}},{"type":"Feature","id":109,"geometry":{"type":"Point","coordinates":[113.97180000000003,22.385460000000023]},"properties":{"OBJECTID":109,"Field1":108,"GMID":"3WuK7QCTur","Dataset":"Badminton Courts","Facility_Name":"Yau Oi Sports Centre","Address":"3 Hing On Lane, Tuen Mun","District":"TUEN MUN","Northing":827373.5,"Easting":815149.40000000002,"Latitude":22.385459999999998,"Longitude":113.9718}},{"type":"Feature","id":110,"geometry":{"type":"Point","coordinates":[114.11452000000008,22.368990000000053]},"properties":{"OBJECTID":110,"Field1":109,"GMID":"NRKmwY0FTv","Dataset":"Badminton Courts","Facility_Name":"Yeung Uk Road Sports Centre","Address":"4/F Yeung Uk Road Municipal Services Building, 45 Yeung Uk Road, Tsuen Wan","District":"TSUEN WAN","Northing":825537,"Easting":829846,"Latitude":22.36899,"Longitude":114.11452}},{"type":"Feature","id":111,"geometry":{"type":"Point","coordinates":[114.15701000000001,22.250510000000077]},"properties":{"OBJECTID":111,"Field1":110,"GMID":"qLFyWrLDp0","Dataset":"Badminton Courts","Facility_Name":"Yue Kwong Road Sports Centre","Address":"Aberdeen Reservoir Road","District":"SOUTHERN","Northing":812416,"Easting":834220,"Latitude":22.250509999999998,"Longitude":114.15701}},{"type":"Feature","id":112,"geometry":{"type":"Point","coordinates":[114.02386000000001,22.441470000000038]},"properties":{"OBJECTID":112,"Field1":111,"GMID":"HqrSUV6WOM","Dataset":"Badminton Courts","Facility_Name":"Yuen Long Sports Centre","Address":"3/F, Yuen Long Leisure and Cultural Building, 52 Ma Tin Road, Yuen Long","District":"YUEN LONG","Northing":833569.09999999998,"Easting":820517.19999999995,"Latitude":22.441469999999999,"Longitude":114.02386}},{"type":"Feature","id":113,"geometry":{"type":"Point","coordinates":[114.19257000000005,22.382940000000076]},"properties":{"OBJECTID":113,"Field1":112,"GMID":"tyMJ15v7En","Dataset":"Badminton Courts","Facility_Name":"Yuen Wo Road Sports Centre","Address":"4 Yuen Wo Road, Sha Tin","District":"SHA TIN","Northing":827080,"Easting":837884,"Latitude":22.382940000000001,"Longitude":114.19257}},{"type":"Feature","id":114,"geometry":{"type":"Point","coordinates":[114.21558000000005,22.401900000000069]},"properties":{"OBJECTID":114,"Field1":113,"GMID":"ICKIv5eBVu","Dataset":"Basketball Courts","Facility_Name":"A Kung Kok Basketball Court","Address":"Ah Kung Kok Fishermen Village, A Kung Kok Street, Sha Tin, NT","District":"SHA TIN","Northing":829179.90000000002,"Easting":840253.5,"Latitude":22.401900000000001,"Longitude":114.21558}},{"type":"Feature","id":115,"geometry":{"type":"Point","coordinates":[114.1530600000001,22.247660000000053]},"properties":{"OBJECTID":115,"Field1":114,"GMID":"oilyXZFrcR","Dataset":"Basketball Courts","Facility_Name":"Aberdeen Promenade","Address":"Aberdeen Praya Road, Aberdeen","District":"SOUTHERN","Northing":812100,"Easting":833813,"Latitude":22.24766,"Longitude":114.15306}},{"type":"Feature","id":116,"geometry":{"type":"Point","coordinates":[114.15436000000011,22.249560000000031]},"properties":{"OBJECTID":116,"Field1":115,"GMID":"80hSCBcAOQ","Dataset":"Basketball Courts","Facility_Name":"Aberdeen Sports Centre","Address":"6/F Aberdeen Municipal Services Building, 203 Aberdeen Main Road, Aberdeen","District":"SOUTHERN","Northing":812311,"Easting":833947,"Latitude":22.249559999999999,"Longitude":114.15436}},{"type":"Feature","id":117,"geometry":{"type":"Point","coordinates":[114.22984000000008,22.282670000000053]},"properties":{"OBJECTID":117,"Field1":116,"GMID":"ILngnugvgc","Dataset":"Basketball Courts","Facility_Name":"Aldrich Bay Promenade","Address":"Oi Lai Street, Shau Kei Wan","District":"EASTERN","Northing":815978,"Easting":841726,"Latitude":22.28267,"Longitude":114.22984}},{"type":"Feature","id":118,"geometry":{"type":"Point","coordinates":[114.1644500000001,22.319570000000056]},"properties":{"OBJECTID":118,"Field1":117,"GMID":"bqAE9QZYfC","Dataset":"Basketball Courts","Facility_Name":"Anchor Street Playground","Address":"55 Anchor Street, Mongkok","District":"YAU TSIM MONG","Northing":820063,"Easting":834988,"Latitude":22.319569999999999,"Longitude":114.16445}},{"type":"Feature","id":119,"geometry":{"type":"Point","coordinates":[114.15542000000005,22.244480000000067]},"properties":{"OBJECTID":119,"Field1":118,"GMID":"1cydaZdr9K","Dataset":"Basketball Courts","Facility_Name":"Ap Lei Chau Sports Centre","Address":"8 Hung Shing Street, Apleichau","District":"SOUTHERN","Northing":811748,"Easting":834056,"Latitude":22.244479999999999,"Longitude":114.15542000000001}},{"type":"Feature","id":120,"geometry":{"type":"Point","coordinates":[114.17069000000004,22.310410000000047]},"properties":{"OBJECTID":120,"Field1":119,"GMID":"tOQFRtWfh9","Dataset":"Basketball Courts","Facility_Name":"Arthur Street Temporary Playground","Address":"J/O Public Square Street,Arthur Street, Kowloon.","District":"YAU TSIM MONG","Northing":819049,"Easting":835630.90000000002,"Latitude":22.310410000000001,"Longitude":114.17068999999999}},{"type":"Feature","id":121,"geometry":{"type":"Point","coordinates":[114.23173000000008,22.281570000000045]},"properties":{"OBJECTID":121,"Field1":120,"GMID":"6ZMw5oZ4Qd","Dataset":"Basketball Courts","Facility_Name":"Basel Road Playground","Address":"Basel Road, Shau Kei Wan","District":"EASTERN","Northing":815855.5,"Easting":841920.80000000005,"Latitude":22.281569999999999,"Longitude":114.23173}},{"type":"Feature","id":122,"geometry":{"type":"Point","coordinates":[114.14812000000006,22.284320000000037]},"properties":{"OBJECTID":122,"Field1":121,"GMID":"XXqZ8XxVYn","Dataset":"Basketball Courts","Facility_Name":"Blake Gardens","Address":"J/O Po Hing Fong & Kui In Fong, Sheung Wan","District":"CENTRAL AND WESTERN","Northing":816160,"Easting":833305,"Latitude":22.284320000000001,"Longitude":114.14812000000001}},{"type":"Feature","id":123,"geometry":{"type":"Point","coordinates":[114.17091000000005,22.325590000000034]},"properties":{"OBJECTID":123,"Field1":122,"GMID":"oE9lBkYmBS","Dataset":"Basketball Courts","Facility_Name":"Boundary Street Sports Centre No. 1","Address":"200 Sai Yee Street, Mong Kok","District":"YAU TSIM MONG","Northing":820730,"Easting":835654,"Latitude":22.325589999999998,"Longitude":114.17091000000001}},{"type":"Feature","id":124,"geometry":{"type":"Point","coordinates":[114.1705300000001,22.326080000000047]},"properties":{"OBJECTID":124,"Field1":123,"GMID":"EdpKzCZswi","Dataset":"Basketball Courts","Facility_Name":"Boundary Street Sports Centre No. 2","Address":"200 Sai Yee Street, Mong Kok","District":"YAU TSIM MONG","Northing":820784,"Easting":835614,"Latitude":22.326080000000001,"Longitude":114.17053}},{"type":"Feature","id":125,"geometry":{"type":"Point","coordinates":[114.19948000000011,22.284040000000061]},"properties":{"OBJECTID":125,"Field1":124,"GMID":"KuFZOMgbSU","Dataset":"Basketball Courts","Facility_Name":"Braemar Hill Road Playground","Address":"Braemar Hill Road, North Point","District":"EASTERN","Northing":816129,"Easting":838598,"Latitude":22.284040000000001,"Longitude":114.19947999999999}},{"type":"Feature","id":126,"geometry":{"type":"Point","coordinates":[114.19071000000008,22.331160000000068]},"properties":{"OBJECTID":126,"Field1":125,"GMID":"9G5i7NFpXL","Dataset":"Basketball Courts","Facility_Name":"Carpenter Road Park","Address":"Junction Road, Kowloon","District":"KOWLOON CITY","Northing":821346,"Easting":837693.09999999998,"Latitude":22.331160000000001,"Longitude":114.19071}},{"type":"Feature","id":127,"geometry":{"type":"Point","coordinates":[114.13292000000001,22.357200000000034]},"properties":{"OBJECTID":127,"Field1":126,"GMID":"wJ8k0Jn1W0","Dataset":"Basketball Courts","Facility_Name":"Central Kwai Chung Park","Address":"San Kwai Street, Kwai Chung","District":"KWAI TSING","Northing":824230,"Easting":831741.09999999998,"Latitude":22.357199999999999,"Longitude":114.13292}},{"type":"Feature","id":128,"geometry":{"type":"Point","coordinates":[114.10429000000011,22.37602000000004]},"properties":{"OBJECTID":128,"Field1":127,"GMID":"iAFpGp4Cof","Dataset":"Basketball Courts","Facility_Name":"Chai Wan Kok Playground","Address":"198, Tsuen King Circuit, Tsuen Wan.","District":"TSUEN WAN","Northing":826315.40000000002,"Easting":828792.5,"Latitude":22.37602,"Longitude":114.10429000000001}},{"type":"Feature","id":129,"geometry":{"type":"Point","coordinates":[114.23849000000007,22.266280000000052]},"properties":{"OBJECTID":129,"Field1":128,"GMID":"updsx7Sxwa","Dataset":"Basketball Courts","Facility_Name":"Chai Wan Park","Address":"Chai Wan Park, Tsui Wan Street, Chai Wan","District":"EASTERN","Northing":814162.80000000005,"Easting":842618.30000000005,"Latitude":22.266279999999998,"Longitude":114.23849}},{"type":"Feature","id":130,"geometry":{"type":"Point","coordinates":[114.23991000000001,22.264850000000024]},"properties":{"OBJECTID":130,"Field1":129,"GMID":"C2cPEbqrpV","Dataset":"Basketball Courts","Facility_Name":"Chai Wan Sports Centre","Address":"6 Yee Shun Street, Chai Wan","District":"EASTERN","Northing":814005,"Easting":842765,"Latitude":22.264849999999999,"Longitude":114.23990999999999}},{"type":"Feature","id":131,"geometry":{"type":"Point","coordinates":[114.1855700000001,22.372230000000059]},"properties":{"OBJECTID":131,"Field1":130,"GMID":"ExLfbnP6ic","Dataset":"Basketball Courts","Facility_Name":"Che Kung Temple Sports Centre","Address":"No. 10, Sha Tin Tau Road, Sha Tin","District":"SHA TIN","Northing":825894,"Easting":837164,"Latitude":22.372229999999998,"Longitude":114.18557}},{"type":"Feature","id":132,"geometry":{"type":"Point","coordinates":[114.03118000000006,22.20751000000007]},"properties":{"OBJECTID":132,"Field1":131,"GMID":"ZvenzVSC6B","Dataset":"Basketball Courts","Facility_Name":"Cheung Chau Sports Centre","Address":"Nam She Tong, Cheung Chau","District":"ISLANDS","Northing":807661,"Easting":821245,"Latitude":22.207509999999999,"Longitude":114.03118000000001}},{"type":"Feature","id":133,"geometry":{"type":"Point","coordinates":[114.03298000000007,22.206580000000031]},"properties":{"OBJECTID":133,"Field1":132,"GMID":"d5YgOb8lTn","Dataset":"Basketball Courts","Facility_Name":"Cheung Chau Sports Ground","Address":"Fa Ping Road, Cheung Chau","District":"ISLANDS","Northing":807558.40000000002,"Easting":821430.40000000002,"Latitude":22.206579999999999,"Longitude":114.03297999999999}},{"type":"Feature","id":134,"geometry":{"type":"Point","coordinates":[114.10270000000003,22.36247000000003]},"properties":{"OBJECTID":134,"Field1":133,"GMID":"HxiWNNWV1l","Dataset":"Basketball Courts","Facility_Name":"Cheung Fat Sports Centre","Address":"4/F, Cheung Fat Shopping Centre, Cheung Fat Estate, Tsing Yi","District":"KWAI TSING","Northing":824815.80000000005,"Easting":828627.90000000002,"Latitude":22.362469999999998,"Longitude":114.1027}},{"type":"Feature","id":135,"geometry":{"type":"Point","coordinates":[114.15496000000007,22.334900000000061]},"properties":{"OBJECTID":135,"Field1":134,"GMID":"igq1wIX19n","Dataset":"Basketball Courts","Facility_Name":"Cheung Sha Wan Playground","Address":"Cheung Sha Wan Road,Sham Shui Po, Kowloon","District":"SHAM SHUI PO","Northing":821760.30000000005,"Easting":834010.69999999995,"Latitude":22.334900000000001,"Longitude":114.15496}},{"type":"Feature","id":136,"geometry":{"type":"Point","coordinates":[114.14588000000003,22.33618000000007]},"properties":{"OBJECTID":136,"Field1":135,"GMID":"VZ2I8SIODV","Dataset":"Basketball Courts","Facility_Name":"Cheung Sha Wan Road / Cheung Shun Street Playground","Address":"Cheung Sha Wan Road / Cheung Shun Street, Sham Shui Po","District":"SHAM SHUI PO","Northing":821903,"Easting":833075,"Latitude":22.336179999999999,"Longitude":114.14588000000001}},{"type":"Feature","id":137,"geometry":{"type":"Point","coordinates":[114.15347000000008,22.337970000000041]},"properties":{"OBJECTID":137,"Field1":136,"GMID":"GEh3942DZP","Dataset":"Basketball Courts","Facility_Name":"Cheung Sha Wan Sports Centre","Address":"J/O Hing Wah Street & Cheung Sha Wan Road, Sham Shui Po","District":"SHAM SHUI PO","Northing":822100,"Easting":833857,"Latitude":22.337969999999999,"Longitude":114.15347}},{"type":"Feature","id":138,"geometry":{"type":"Point","coordinates":[114.10977000000003,22.349610000000041]},"properties":{"OBJECTID":138,"Field1":137,"GMID":"EpZ4asw1rc","Dataset":"Basketball Courts","Facility_Name":"Cheung Tat Road Sitting-out Area","Address":"Cheung Tat Road, Tsing Yi","District":"KWAI TSING","Northing":823390.59999999998,"Easting":829355.40000000002,"Latitude":22.349609999999998,"Longitude":114.10977}},{"type":"Feature","id":139,"geometry":{"type":"Point","coordinates":[114.19586000000004,22.337290000000053]},"properties":{"OBJECTID":139,"Field1":138,"GMID":"m85zEvbeVr","Dataset":"Basketball Courts","Facility_Name":"Choi Hung Road Playground","Address":"150 Choi Hung Road, San Po Kong","District":"WONG TAI SIN","Northing":822025,"Easting":838224,"Latitude":22.337289999999999,"Longitude":114.19586}},{"type":"Feature","id":140,"geometry":{"type":"Point","coordinates":[114.19645000000003,22.337130000000059]},"properties":{"OBJECTID":140,"Field1":139,"GMID":"QoeL48TDSd","Dataset":"Basketball Courts","Facility_Name":"Choi Hung Road Sports Centre","Address":"Sheung Hei Street, Wong Tai Sin","District":"WONG TAI SIN","Northing":822007,"Easting":838285,"Latitude":22.337129999999998,"Longitude":114.19645}},{"type":"Feature","id":141,"geometry":{"type":"Point","coordinates":[114.14461000000006,22.536200000000065]},"properties":{"OBJECTID":141,"Field1":140,"GMID":"1H7U1mI3Y1","Dataset":"Basketball Courts","Facility_Name":"Chow Tin Tsuen Children's Playground","Address":"Chow Tin Village, Ping Che Road, Ta Kwu Ling, N.T.","District":"NORTH","Northing":844051.90000000002,"Easting":832948.5,"Latitude":22.536200000000001,"Longitude":114.14461}},{"type":"Feature","id":142,"geometry":{"type":"Point","coordinates":[114.25075000000004,22.304210000000069]},"properties":{"OBJECTID":142,"Field1":141,"GMID":"rbhmmnNt3T","Dataset":"Basketball Courts","Facility_Name":"Chui Ling Lane Playground","Address":"Choi Ming Street, Tseung Kwan O","District":"SAI KUNG","Northing":818363.59999999998,"Easting":843879.69999999995,"Latitude":22.304210000000001,"Longitude":114.25075}},{"type":"Feature","id":143,"geometry":{"type":"Point","coordinates":[114.19351000000006,22.345520000000079]},"properties":{"OBJECTID":143,"Field1":142,"GMID":"mpiOqHLiP9","Dataset":"Basketball Courts","Facility_Name":"Chuk Yuen Sports Centre","Address":"Chuk Yuen North Estate, Chuk Yuen Road, Wong Tai Sin","District":"WONG TAI SIN","Northing":822937,"Easting":837982,"Latitude":22.34552,"Longitude":114.19351}},{"type":"Feature","id":144,"geometry":{"type":"Point","coordinates":[114.2205100000001,22.322470000000067]},"properties":{"OBJECTID":144,"Field1":143,"GMID":"nnTsvTWY08","Dataset":"Basketball Courts","Facility_Name":"Chun Wah Road Sports Centre","Address":"Top Floor, Lok Nga Court Carpark, 50 Chun Wah Road, Ngau Tau Kok, Kwun Tong","District":"KWUN TONG","Northing":820385,"Easting":840764,"Latitude":22.322469999999999,"Longitude":114.22051}},{"type":"Feature","id":145,"geometry":{"type":"Point","coordinates":[114.02612000000011,22.443560000000048]},"properties":{"OBJECTID":145,"Field1":144,"GMID":"veyyeYkwTS","Dataset":"Basketball Courts","Facility_Name":"Chung Sing Path Playground","Address":"Chung Sing Path, Yuen Long","District":"YUEN LONG","Northing":833800.80000000005,"Easting":820749.5,"Latitude":22.443560000000002,"Longitude":114.02612000000001}},{"type":"Feature","id":146,"geometry":{"type":"Point","coordinates":[114.19519000000003,22.28508000000005]},"properties":{"OBJECTID":146,"Field1":145,"GMID":"viAkS5PKBj","Dataset":"Basketball Courts","Facility_Name":"Cloud View Road S/R Playground","Address":"Cloud View Road, North Point","District":"EASTERN","Northing":816244,"Easting":838156,"Latitude":22.285080000000001,"Longitude":114.19519}},{"type":"Feature","id":147,"geometry":{"type":"Point","coordinates":[114.17447000000004,22.327810000000056]},"properties":{"OBJECTID":147,"Field1":146,"GMID":"2Tjlpq26AJ","Dataset":"Basketball Courts","Facility_Name":"Fa Hui Park","Address":"101 Boundary Street, Sham Shui Po","District":"SHAM SHUI PO","Northing":820975,"Easting":836020,"Latitude":22.327809999999999,"Longitude":114.17447}},{"type":"Feature","id":148,"geometry":{"type":"Point","coordinates":[114.17070000000001,22.32078000000007]},"properties":{"OBJECTID":148,"Field1":147,"GMID":"xQJ66ObwoT","Dataset":"Basketball Courts","Facility_Name":"Fa Yuen Street Sports Centre","Address":"13/F Fa Yuen Street Municipal Services Building, 123A Fa Yuen Street, Mong Kok","District":"YAU TSIM MONG","Northing":820197,"Easting":835632,"Latitude":22.320779999999999,"Longitude":114.1707}},{"type":"Feature","id":149,"geometry":{"type":"Point","coordinates":[114.23011000000008,22.276730000000043]},"properties":{"OBJECTID":149,"Field1":148,"GMID":"8U3oGZVidd","Dataset":"Basketball Courts","Facility_Name":"Factory Street Playground","Address":"Factory Street, Shau Kei Wan","District":"EASTERN","Northing":815320,"Easting":841755,"Latitude":22.276730000000001,"Longitude":114.23011}},{"type":"Feature","id":150,"geometry":{"type":"Point","coordinates":[114.13614000000007,22.497190000000046]},"properties":{"OBJECTID":150,"Field1":149,"GMID":"vrbmiL6QHd","Dataset":"Basketball Courts","Facility_Name":"Fan Ling Wai Playground","Address":"Fan Ling Wai, Fanling, N.T.","District":"NORTH","Northing":839732.69999999995,"Easting":832076.09999999998,"Latitude":22.49719,"Longitude":114.13614}},{"type":"Feature","id":151,"geometry":{"type":"Point","coordinates":[114.1376600000001,22.493480000000034]},"properties":{"OBJECTID":151,"Field1":150,"GMID":"48EXeaJwhu","Dataset":"Basketball Courts","Facility_Name":"Fanling Recreation Ground","Address":"San Wan Road, Fanling","District":"NORTH","Northing":839321,"Easting":832233,"Latitude":22.493480000000002,"Longitude":114.13766}},{"type":"Feature","id":152,"geometry":{"type":"Point","coordinates":[114.1811100000001,22.314830000000029]},"properties":{"OBJECTID":152,"Field1":151,"GMID":"2z7MIIefEy","Dataset":"Basketball Courts","Facility_Name":"Fat Kwong Street Sports Centre","Address":"18 Good Shepherd Street, Ho Man Tin","District":"KOWLOON CITY","Northing":819538,"Easting":836704,"Latitude":22.314830000000001,"Longitude":114.18111}},{"type":"Feature","id":153,"geometry":{"type":"Point","coordinates":[114.17136000000005,22.458290000000034]},"properties":{"OBJECTID":153,"Field1":152,"GMID":"R7UxGtPcMs","Dataset":"Basketball Courts","Facility_Name":"Fu Heng Sports Centre","Address":"1/F, Fu Heng Shopping Centre, Fu Heng Estate, Tai Po","District":"TAI PO","Northing":835424,"Easting":835700,"Latitude":22.458290000000002,"Longitude":114.17136000000001}},{"type":"Feature","id":154,"geometry":{"type":"Point","coordinates":[114.17412000000002,22.453880000000026]},"properties":{"OBJECTID":154,"Field1":153,"GMID":"vZEY1z8K27","Dataset":"Basketball Courts","Facility_Name":"Fu Shin Sports Centre","Address":"Multi Car-Park Building, Fu Shin Estate, Tai Po","District":"TAI PO","Northing":834936,"Easting":835984,"Latitude":22.453880000000002,"Longitude":114.17412}},{"type":"Feature","id":155,"geometry":{"type":"Point","coordinates":[113.98503000000005,22.421530000000075]},"properties":{"OBJECTID":155,"Field1":154,"GMID":"ciX1RUhLrz","Dataset":"Basketball Courts","Facility_Name":"Fuk Hang Playground","Address":"Fuk Hang Tsuen Road, Tuen Mun","District":"TUEN MUN","Northing":831366,"Easting":816516.80000000005,"Latitude":22.421530000000001,"Longitude":113.98502999999999}},{"type":"Feature","id":156,"geometry":{"type":"Point","coordinates":[114.03303000000005,22.44306000000006]},"properties":{"OBJECTID":156,"Field1":155,"GMID":"aO5EydtbDY","Dataset":"Basketball Courts","Facility_Name":"Fung Kam Street Sports Centre","Address":"20 Fung Yau Street North, Yuen Long","District":"YUEN LONG","Northing":833745,"Easting":821461,"Latitude":22.443059999999999,"Longitude":114.03303}},{"type":"Feature","id":157,"geometry":{"type":"Point","coordinates":[114.03415000000007,22.442390000000046]},"properties":{"OBJECTID":157,"Field1":156,"GMID":"RCGmU07RLL","Dataset":"Basketball Courts","Facility_Name":"Fung Kwan Street Garden","Address":"Fung Kwan Street, Yuen Long","District":"YUEN LONG","Northing":833670.40000000002,"Easting":821575.59999999998,"Latitude":22.44239,"Longitude":114.03415}},{"type":"Feature","id":158,"geometry":{"type":"Point","coordinates":[114.10095000000001,22.355910000000051]},"properties":{"OBJECTID":158,"Field1":157,"GMID":"ZtS42u7NbZ","Dataset":"Basketball Courts","Facility_Name":"Fung Shue Wo Resite Village Basketball Court","Address":"Fung Shue Wo Resite Village, Tsing Yu Street","District":"KWAI TSING","Northing":824088.59999999998,"Easting":828447.30000000005,"Latitude":22.355910000000002,"Longitude":114.10095}},{"type":"Feature","id":159,"geometry":{"type":"Point","coordinates":[114.10269000000005,22.355480000000057]},"properties":{"OBJECTID":159,"Field1":158,"GMID":"X8hWihu6IQ","Dataset":"Basketball Courts","Facility_Name":"Fung Shue Wo Sports Centre","Address":"10 Fung Shue Wo Road, Tsing Yi Estate, Phase II, Tsing Yi","District":"KWAI TSING","Northing":824041.30000000005,"Easting":828627.09999999998,"Latitude":22.35548,"Longitude":114.10269}},{"type":"Feature","id":160,"geometry":{"type":"Point","coordinates":[114.07422000000008,22.515950000000032]},"properties":{"OBJECTID":160,"Field1":159,"GMID":"vEkaeFTRuq","Dataset":"Basketball Courts","Facility_Name":"Ha Wan Tsuen Basketball Court","Address":"Ha Wan Tsuen, Lok Ma Chau, San Tin, Yuen Long","District":"YUEN LONG","Northing":841813.30000000005,"Easting":825706.69999999995,"Latitude":22.51595,"Longitude":114.07422}},{"type":"Feature","id":161,"geometry":{"type":"Point","coordinates":[114.26648000000012,22.321090000000027]},"properties":{"OBJECTID":161,"Field1":160,"GMID":"Mvpqx9CRSG","Dataset":"Basketball Courts","Facility_Name":"Hang Hau Basketball Court","Address":"Hang Hau Village, Tseung Kwan O.","District":"SAI KUNG","Northing":820233.90000000002,"Easting":845499.5,"Latitude":22.321090000000002,"Longitude":114.26648}},{"type":"Feature","id":162,"geometry":{"type":"Point","coordinates":[114.26824000000011,22.317170000000033]},"properties":{"OBJECTID":162,"Field1":161,"GMID":"979T1t2VXr","Dataset":"Basketball Courts","Facility_Name":"Hang Hau Sports Centre","Address":"1-3/F, Sai Kung Tseung Kwan O Government Complex, 38 Pui Shing Road, Tseung Kwan O.","District":"SAI KUNG","Northing":819800.30000000005,"Easting":845681,"Latitude":22.317170000000001,"Longitude":114.26824000000001}},{"type":"Feature","id":163,"geometry":{"type":"Point","coordinates":[114.00760000000002,22.445110000000057]},"properties":{"OBJECTID":163,"Field1":162,"GMID":"8lggKgJVbe","Dataset":"Basketball Courts","Facility_Name":"Hang Tau Tsuen Playground","Address":"Hang Tau Tsuen, Ping Shan, Yuen Long","District":"YUEN LONG","Northing":833974.90000000002,"Easting":818843.69999999995,"Latitude":22.44511,"Longitude":114.0076}},{"type":"Feature","id":164,"geometry":{"type":"Point","coordinates":[114.17671000000007,22.281270000000063]},"properties":{"OBJECTID":164,"Field1":163,"GMID":"g4IruLFo98","Dataset":"Basketball Courts","Facility_Name":"Harbour Road Sports Centre","Address":"27 Harbour Road, Wanchai","District":"WAN CHAI","Northing":815822,"Easting":836250.90000000002,"Latitude":22.281269999999999,"Longitude":114.17671}},{"type":"Feature","id":165,"geometry":{"type":"Point","coordinates":[114.20581000000004,22.290710000000047]},"properties":{"OBJECTID":165,"Field1":164,"GMID":"E7m6IkVFTh","Dataset":"Basketball Courts","Facility_Name":"Healthy Village Playground","Address":"Pak Fuk Road, North Point","District":"EASTERN","Northing":816867,"Easting":839250,"Latitude":22.290710000000001,"Longitude":114.20581}},{"type":"Feature","id":166,"geometry":{"type":"Point","coordinates":[114.22787000000005,22.416690000000074]},"properties":{"OBJECTID":166,"Field1":165,"GMID":"gxft8py3L7","Dataset":"Basketball Courts","Facility_Name":"Heng On Sports Centre","Address":"4/F., Heng On Commercial Centre, Heng On Estate, Ma On Shan, Sha Tin","District":"SHA TIN","Northing":830818,"Easting":841518,"Latitude":22.416689999999999,"Longitude":114.22787}},{"type":"Feature","id":167,"geometry":{"type":"Point","coordinates":[114.1781400000001,22.277880000000039]},"properties":{"OBJECTID":167,"Field1":166,"GMID":"VqYSyy8g4E","Dataset":"Basketball Courts","Facility_Name":"Hennessy Road Playground","Address":"Hennessy Road, Wan Chai","District":"WAN CHAI","Northing":815446.19999999995,"Easting":836398.30000000005,"Latitude":22.27788,"Longitude":114.17814}},{"type":"Feature","id":168,"geometry":{"type":"Point","coordinates":[114.1713400000001,22.36307000000005]},"properties":{"OBJECTID":168,"Field1":167,"GMID":"VY4Pv069oT","Dataset":"Basketball Courts","Facility_Name":"Hin Keng Sports Centre","Address":"Hin Keng Commercial Centre, Hin Keng Estate, Sha Tin","District":"SHA TIN","Northing":824880,"Easting":835698,"Latitude":22.36307,"Longitude":114.17134}},{"type":"Feature","id":169,"geometry":{"type":"Point","coordinates":[114.23127000000011,22.31702000000007]},"properties":{"OBJECTID":169,"Field1":168,"GMID":"0ab4g9qXZG","Dataset":"Basketball Courts","Facility_Name":"Hiu Kwong Street Recreation Ground","Address":"Hiu Kwong Street, Kwun Tong","District":"KWUN TONG","Northing":819782,"Easting":841872,"Latitude":22.317019999999999,"Longitude":114.23126999999999}},{"type":"Feature","id":170,"geometry":{"type":"Point","coordinates":[114.22769000000005,22.319800000000043]},"properties":{"OBJECTID":170,"Field1":169,"GMID":"H4hm7tEIA0","Dataset":"Basketball Courts","Facility_Name":"Hiu Kwong Street Sports Centre","Address":"2 Hiu Kwong Street, Kwun Tong","District":"KWUN TONG","Northing":820089,"Easting":841504,"Latitude":22.319800000000001,"Longitude":114.22769}},{"type":"Feature","id":171,"geometry":{"type":"Point","coordinates":[114.23147000000006,22.315850000000069]},"properties":{"OBJECTID":171,"Field1":170,"GMID":"EPfx9pwB9q","Dataset":"Basketball Courts","Facility_Name":"Hiu Ming Street Playground","Address":"Hiu Ming Street, Kwun Tong","District":"KWUN TONG","Northing":819652,"Easting":841893,"Latitude":22.315850000000001,"Longitude":114.23147}},{"type":"Feature","id":172,"geometry":{"type":"Point","coordinates":[114.18058000000008,22.31230000000005]},"properties":{"OBJECTID":172,"Field1":171,"GMID":"MSKgwBPmtd","Dataset":"Basketball Courts","Facility_Name":"Ho Man Tin Park","Address":"1 Chung Yee Street","District":"KOWLOON CITY","Northing":819258,"Easting":836650,"Latitude":22.3123,"Longitude":114.18058000000001}},{"type":"Feature","id":173,"geometry":{"type":"Point","coordinates":[114.10930000000008,22.51066000000003]},"properties":{"OBJECTID":173,"Field1":172,"GMID":"v0aE4OcvwM","Dataset":"Basketball Courts","Facility_Name":"Ho Sheung Heung Playground","Address":"Ho Sheung Heung, Sheung Shui, N.T.","District":"NORTH","Northing":841224.59999999998,"Easting":829315.19999999995,"Latitude":22.510660000000001,"Longitude":114.1093}},{"type":"Feature","id":174,"geometry":{"type":"Point","coordinates":[113.97471000000007,22.383540000000039]},"properties":{"OBJECTID":174,"Field1":173,"GMID":"rwUZ0zFlZh","Dataset":"Basketball Courts","Facility_Name":"Hoi Chu Road Playground","Address":"Hoi Chu Road Tuen Mun","District":"TUEN MUN","Northing":827160.59999999998,"Easting":815448.40000000002,"Latitude":22.38354,"Longitude":113.97471}},{"type":"Feature","id":175,"geometry":{"type":"Point","coordinates":[114.10475000000008,22.372810000000072]},"properties":{"OBJECTID":175,"Field1":174,"GMID":"tAKBb1Ju6o","Dataset":"Basketball Courts","Facility_Name":"Hoi On Road Playground (Basketball practice court)","Address":"Hoi On Road, Tsuen Wan","District":"TSUEN WAN","Northing":825960.5,"Easting":828839.69999999995,"Latitude":22.372810000000001,"Longitude":114.10475}},{"type":"Feature","id":176,"geometry":{"type":"Point","coordinates":[114.1917400000001,22.315070000000048]},"properties":{"OBJECTID":176,"Field1":175,"GMID":"nZ2deVMDpF","Dataset":"Basketball Courts","Facility_Name":"Hoi Sham Park","Address":"Yuk Yat Street","District":"KOWLOON CITY","Northing":819565,"Easting":837800,"Latitude":22.315069999999999,"Longitude":114.19174}},{"type":"Feature","id":177,"geometry":{"type":"Point","coordinates":[114.15929000000006,22.277340000000038]},"properties":{"OBJECTID":177,"Field1":176,"GMID":"BzPifUxKW8","Dataset":"Basketball Courts","Facility_Name":"Hong Kong Park Sports Centre","Address":"29 Cotton Tree Drive, Central","District":"CENTRAL AND WESTERN","Northing":815387,"Easting":834456,"Latitude":22.277339999999999,"Longitude":114.15929}},{"type":"Feature","id":178,"geometry":{"type":"Point","coordinates":[114.22345000000007,22.317510000000027]},"properties":{"OBJECTID":178,"Field1":177,"GMID":"U6OFJ0EkXy","Dataset":"Basketball Courts","Facility_Name":"Hong Ning Road Recreation Ground","Address":"Hong Ning Road, Kwun Tong","District":"KWUN TONG","Northing":819835,"Easting":841067,"Latitude":22.317509999999999,"Longitude":114.22345}},{"type":"Feature","id":179,"geometry":{"type":"Point","coordinates":[114.17921000000001,22.300860000000057]},"properties":{"OBJECTID":179,"Field1":178,"GMID":"hyYRHjzKjH","Dataset":"Basketball Courts","Facility_Name":"Hong Tat Path Garden","Address":"Science Museum Road","District":"YAU TSIM MONG","Northing":817990.5,"Easting":836508.59999999998,"Latitude":22.30086,"Longitude":114.17921}},{"type":"Feature","id":180,"geometry":{"type":"Point","coordinates":[113.96896000000004,22.392640000000029]},"properties":{"OBJECTID":180,"Field1":179,"GMID":"usA0jQY9z2","Dataset":"Basketball Courts","Facility_Name":"Hung Cheung Road Playground","Address":"Hung Cheung Road, Tuen Mun","District":"TUEN MUN","Northing":828168.90000000002,"Easting":814857.90000000002,"Latitude":22.39264,"Longitude":113.96896}},{"type":"Feature","id":181,"geometry":{"type":"Point","coordinates":[114.18736000000001,22.307270000000074]},"properties":{"OBJECTID":181,"Field1":180,"GMID":"VfRzQDZfZm","Dataset":"Basketball Courts","Facility_Name":"Hung Hom Municipal Services Building Sports Centre","Address":"3-5/F Hung Hom Municipal Services Building, 11 Ma Tau Wai Road, Hung Hom, Kowloon","District":"KOWLOON CITY","Northing":818701,"Easting":837348,"Latitude":22.307269999999999,"Longitude":114.18736}},{"type":"Feature","id":182,"geometry":{"type":"Point","coordinates":[114.22229000000004,22.28472000000005]},"properties":{"OBJECTID":182,"Field1":181,"GMID":"Ks0Zeqlua7","Dataset":"Basketball Courts","Facility_Name":"Island East Sports Centre","Address":"52 Lei King Road, Sai Wan Ho","District":"EASTERN","Northing":816205,"Easting":840948,"Latitude":22.28472,"Longitude":114.22229}},{"type":"Feature","id":183,"geometry":{"type":"Point","coordinates":[114.20945000000006,22.290760000000034]},"properties":{"OBJECTID":183,"Field1":182,"GMID":"fyLm1VsJXO","Dataset":"Basketball Courts","Facility_Name":"Java Road Playground","Address":"Java Road, North Point","District":"EASTERN","Northing":816873,"Easting":839625,"Latitude":22.290759999999999,"Longitude":114.20945}},{"type":"Feature","id":184,"geometry":{"type":"Point","coordinates":[114.19940000000008,22.292250000000024]},"properties":{"OBJECTID":184,"Field1":183,"GMID":"A6lQGbDvoH","Dataset":"Basketball Courts","Facility_Name":"Java Road Sports Centre","Address":"3/F, Java Road Municipal Services Building, 99 Java Road,North Point","District":"EASTERN","Northing":817038,"Easting":838589,"Latitude":22.292249999999999,"Longitude":114.1994}},{"type":"Feature","id":185,"geometry":{"type":"Point","coordinates":[114.21875000000011,22.324860000000058]},"properties":{"OBJECTID":185,"Field1":184,"GMID":"cqtAusDdkB","Dataset":"Basketball Courts","Facility_Name":"Jordan Valley Playground","Address":"Choi Ha Road, \nNgau Tau Kok, Kowloon","District":"KWUN TONG","Northing":820648.80000000005,"Easting":840581.90000000002,"Latitude":22.324860000000001,"Longitude":114.21875}},{"type":"Feature","id":186,"geometry":{"type":"Point","coordinates":[114.18387000000007,22.339160000000049]},"properties":{"OBJECTID":186,"Field1":185,"GMID":"aKNT1BudSS","Dataset":"Basketball Courts","Facility_Name":"Junction Road Park","Address":"195 Junction Road","District":"KOWLOON CITY","Northing":822232,"Easting":836989,"Latitude":22.33916,"Longitude":114.18387}},{"type":"Feature","id":187,"geometry":{"type":"Point","coordinates":[114.20056000000011,22.335950000000025]},"properties":{"OBJECTID":187,"Field1":186,"GMID":"LeGOjuJhyu","Dataset":"Basketball Courts","Facility_Name":"Kai Tak East Sports Centre","Address":"30 Luk Hop Street, San Po Kong","District":"WONG TAI SIN","Northing":821877,"Easting":838708,"Latitude":22.33595,"Longitude":114.20056}},{"type":"Feature","id":188,"geometry":{"type":"Point","coordinates":[114.18116000000009,22.339280000000031]},"properties":{"OBJECTID":188,"Field1":187,"GMID":"b6NlnzRmrY","Dataset":"Basketball Courts","Facility_Name":"Kam Shing Road Recreation Ground","Address":"Kam Shing Road","District":"KOWLOON CITY","Northing":822245.5,"Easting":836709.09999999998,"Latitude":22.339279999999999,"Longitude":114.18116000000001}},{"type":"Feature","id":189,"geometry":{"type":"Point","coordinates":[114.06724000000008,22.439190000000053]},"properties":{"OBJECTID":189,"Field1":188,"GMID":"Q3afsSHmTU","Dataset":"Basketball Courts","Facility_Name":"Kam Tin Po Tei Playground","Address":"Po Tei Road, Kam Tin, Yuen Long","District":"YUEN LONG","Northing":833312.59999999998,"Easting":824982,"Latitude":22.43919,"Longitude":114.06724}},{"type":"Feature","id":190,"geometry":{"type":"Point","coordinates":[114.14971000000003,22.53902000000005]},"properties":{"OBJECTID":190,"Field1":189,"GMID":"evSRcwDHQJ","Dataset":"Basketball Courts","Facility_Name":"Kan Tau Wai Playground","Address":"Kan Tau Wai Village, Ping Che Road,Ta Kwu Ling, N.T.","District":"NORTH","Northing":844363.80000000005,"Easting":833473.19999999995,"Latitude":22.539020000000001,"Longitude":114.14971}},{"type":"Feature","id":191,"geometry":{"type":"Point","coordinates":[114.1851200000001,22.317580000000078]},"properties":{"OBJECTID":191,"Field1":190,"GMID":"y8jmcz2LdU","Dataset":"Basketball Courts","Facility_Name":"Kau Pui Lung Road Playground","Address":"Kau Pui Lung Road","District":"KOWLOON CITY","Northing":819843,"Easting":837118,"Latitude":22.31758,"Longitude":114.18512}},{"type":"Feature","id":192,"geometry":{"type":"Point","coordinates":[114.13534000000004,22.346260000000029]},"properties":{"OBJECTID":192,"Field1":191,"GMID":"k8YNgwFlLy","Dataset":"Basketball Courts","Facility_Name":"Kau Wah Keng Village Playground","Address":"Kau Wah Keng Village, Kwai Chung, New Territories","District":"KWAI TSING","Northing":823019.40000000002,"Easting":831989.40000000002,"Latitude":22.346260000000001,"Longitude":114.13534}},{"type":"Feature","id":193,"geometry":{"type":"Point","coordinates":[114.15663000000006,22.276520000000062]},"properties":{"OBJECTID":193,"Field1":192,"GMID":"KbYMl3hVh1","Dataset":"Basketball Courts","Facility_Name":"Kennedy Road Playground","Address":"Kennedy Road, Mid-Level","District":"CENTRAL AND WESTERN","Northing":815296,"Easting":834182,"Latitude":22.276520000000001,"Longitude":114.15663000000001}},{"type":"Feature","id":194,"geometry":{"type":"Point","coordinates":[114.12684000000002,22.281010000000038]},"properties":{"OBJECTID":194,"Field1":193,"GMID":"WUO1a16aYx","Dataset":"Basketball Courts","Facility_Name":"Kennedy Town Playground","Address":"Near Forbes Street Temporary Playground","District":"CENTRAL AND WESTERN","Northing":815793.69999999995,"Easting":831111.80000000005,"Latitude":22.281009999999998,"Longitude":114.12684}},{"type":"Feature","id":195,"geometry":{"type":"Point","coordinates":[114.12732000000005,22.279150000000072]},"properties":{"OBJECTID":195,"Field1":194,"GMID":"NyRisxl8yA","Dataset":"Basketball Courts","Facility_Name":"Kennedy Town Service Reservoir Playground","Address":"Kennedy Town Service Reservoir, Kennedy Town","District":"CENTRAL AND WESTERN","Northing":815588,"Easting":831161.30000000005,"Latitude":22.279150000000001,"Longitude":114.12732}},{"type":"Feature","id":196,"geometry":{"type":"Point","coordinates":[114.12068000000011,22.281880000000058]},"properties":{"OBJECTID":196,"Field1":195,"GMID":"pz00iTrsk7","Dataset":"Basketball Courts","Facility_Name":"Kennedy Town Temporary Recreation Ground","Address":"Opposite at No. 33 Sai Ning Street","District":"CENTRAL AND WESTERN","Northing":815890,"Easting":830477,"Latitude":22.281880000000001,"Longitude":114.12067999999999}},{"type":"Feature","id":197,"geometry":{"type":"Point","coordinates":[114.17540000000008,22.339240000000075]},"properties":{"OBJECTID":197,"Field1":196,"GMID":"iV5JycTy09","Dataset":"Basketball Courts","Facility_Name":"Kent Road Garden","Address":"Kent Road","District":"KOWLOON CITY","Northing":822241,"Easting":836116,"Latitude":22.33924,"Longitude":114.1754}},{"type":"Feature","id":198,"geometry":{"type":"Point","coordinates":[114.03162000000009,22.442810000000065]},"properties":{"OBJECTID":198,"Field1":197,"GMID":"nEM4SW4Uum","Dataset":"Basketball Courts","Facility_Name":"Kin Yip Street Playground","Address":"Kin Yip Street, Yuen Long","District":"YUEN LONG","Northing":833717,"Easting":821315.80000000005,"Latitude":22.442810000000001,"Longitude":114.03162}},{"type":"Feature","id":199,"geometry":{"type":"Point","coordinates":[114.19985000000008,22.335440000000062]},"properties":{"OBJECTID":199,"Field1":198,"GMID":"HEsOrRbGsZ","Dataset":"Basketball Courts","Facility_Name":"King Fuk Street Playground","Address":"60 King Fuk Street, Wong Tai Sin","District":"WONG TAI SIN","Northing":821820.09999999998,"Easting":838634.69999999995,"Latitude":22.335439999999998,"Longitude":114.19985}},{"type":"Feature","id":200,"geometry":{"type":"Point","coordinates":[114.14411000000007,22.285660000000064]},"properties":{"OBJECTID":200,"Field1":199,"GMID":"u5OiXqSTzo","Dataset":"Basketball Courts","Facility_Name":"King George V Memorial Park, HK","Address":"Eastern Street, Sai Ying Pun","District":"CENTRAL AND WESTERN","Northing":816308,"Easting":832892,"Latitude":22.28566,"Longitude":114.14411}},{"type":"Feature","id":201,"geometry":{"type":"Point","coordinates":[114.16783000000009,22.305190000000039]},"properties":{"OBJECTID":201,"Field1":200,"GMID":"rjDydJHCVG","Dataset":"Basketball Courts","Facility_Name":"King George V Memorial Park,KLN","Address":"J/O Canton Road, Jordan Road","District":"YAU TSIM MONG","Northing":818471,"Easting":835336,"Latitude":22.30519,"Longitude":114.16783}},{"type":"Feature","id":202,"geometry":{"type":"Point","coordinates":[114.19251000000008,22.315940000000069]},"properties":{"OBJECTID":202,"Field1":201,"GMID":"Dg5PIkO76E","Dataset":"Basketball Courts","Facility_Name":"King Wan Street Playground","Address":"King Wan Street, Kowloon City","District":"KOWLOON CITY","Northing":819660.69999999995,"Easting":837879.40000000002,"Latitude":22.315940000000001,"Longitude":114.19251}},{"type":"Feature","id":203,"geometry":{"type":"Point","coordinates":[114.18116000000009,22.310280000000034]},"properties":{"OBJECTID":203,"Field1":202,"GMID":"pHpafw3Bpl","Dataset":"Basketball Courts","Facility_Name":"King's Park High Level Service Reservoir Playground","Address":"Chung Hau Street","District":"KOWLOON CITY","Northing":819034,"Easting":836710,"Latitude":22.310279999999999,"Longitude":114.18116000000001}},{"type":"Feature","id":204,"geometry":{"type":"Point","coordinates":[114.17374000000007,22.31072000000006]},"properties":{"OBJECTID":204,"Field1":203,"GMID":"gwhxq1yQ70","Dataset":"Basketball Courts","Facility_Name":"King's Park Recreation Ground","Address":"23 King's Park Rise","District":"YAU TSIM MONG","Northing":819082.90000000002,"Easting":835945.40000000002,"Latitude":22.31072,"Longitude":114.17374}},{"type":"Feature","id":205,"geometry":{"type":"Point","coordinates":[114.21063000000004,22.326250000000073]},"properties":{"OBJECTID":205,"Field1":204,"GMID":"Y5F3MvjWnY","Dataset":"Basketball Courts","Facility_Name":"Kowloon Bay Playground","Address":"Kai Lok Street, Kowloon Bay","District":"KWUN TONG","Northing":820803.40000000002,"Easting":839745.19999999995,"Latitude":22.326250000000002,"Longitude":114.21062999999999}},{"type":"Feature","id":206,"geometry":{"type":"Point","coordinates":[114.21124000000009,22.326860000000067]},"properties":{"OBJECTID":206,"Field1":205,"GMID":"IKnkK09azu","Dataset":"Basketball Courts","Facility_Name":"Kowloon Bay Sports Centre","Address":"15 Kai Lok Street, Kowloon Bay","District":"KWUN TONG","Northing":820871,"Easting":839808,"Latitude":22.32686,"Longitude":114.21124}},{"type":"Feature","id":207,"geometry":{"type":"Point","coordinates":[114.18889000000001,22.32964000000004]},"properties":{"OBJECTID":207,"Field1":206,"GMID":"oyzwPfmVAm","Dataset":"Basketball Courts","Facility_Name":"Kowloon City Sports Centre","Address":"3/F, Kln City Municipal Services Building, 100 Nga Tsin Wai Road, Kowloon City","District":"KOWLOON CITY","Northing":821178,"Easting":837506,"Latitude":22.329640000000001,"Longitude":114.18889}},{"type":"Feature","id":208,"geometry":{"type":"Point","coordinates":[114.18344000000002,22.332470000000058]},"properties":{"OBJECTID":208,"Field1":207,"GMID":"TU73gtwMei","Dataset":"Basketball Courts","Facility_Name":"Kowloon Tsai Park","Address":"13 Inverness Road","District":"KOWLOON CITY","Northing":821491.59999999998,"Easting":836944.5,"Latitude":22.332470000000001,"Longitude":114.18344}},{"type":"Feature","id":209,"geometry":{"type":"Point","coordinates":[114.12529000000006,22.358370000000036]},"properties":{"OBJECTID":209,"Field1":208,"GMID":"mkd4Ww3u5o","Dataset":"Basketball Courts","Facility_Name":"Kwai Chung Sports Ground","Address":"93 Hing Shing Road, Kwai Chung","District":"KWAI TSING","Northing":824360,"Easting":830954.30000000005,"Latitude":22.358370000000001,"Longitude":114.12529000000001}},{"type":"Feature","id":210,"geometry":{"type":"Point","coordinates":[114.18659000000002,22.266880000000072]},"properties":{"OBJECTID":210,"Field1":209,"GMID":"9uAz1OvMDW","Dataset":"Basketball Courts","Facility_Name":"Kwai Fong Street Playground","Address":"Kwai Fong Street, Happy Valley","District":"WAN CHAI","Northing":814228.09999999998,"Easting":837269.59999999998,"Latitude":22.26688,"Longitude":114.18659}},{"type":"Feature","id":211,"geometry":{"type":"Point","coordinates":[114.12925000000007,22.365260000000035]},"properties":{"OBJECTID":211,"Field1":210,"GMID":"bjWXGPEgDH","Dataset":"Basketball Courts","Facility_Name":"Kwai Hop Street Playground","Address":"Kwai Hop Street, Kwai Chung, New Territories","District":"KWAI TSING","Northing":825122.80000000005,"Easting":831363.09999999998,"Latitude":22.365259999999999,"Longitude":114.12925}},{"type":"Feature","id":212,"geometry":{"type":"Point","coordinates":[114.12812000000008,22.362240000000043]},"properties":{"OBJECTID":212,"Field1":211,"GMID":"MHNvH0YpoV","Dataset":"Basketball Courts","Facility_Name":"Kwai Shing Circuit Playground","Address":"Kwai Shing Circuit, Kwai Chung, New Territories","District":"KWAI TSING","Northing":824789,"Easting":831246.90000000002,"Latitude":22.36224,"Longitude":114.12812}},{"type":"Feature","id":213,"geometry":{"type":"Point","coordinates":[114.12794000000008,22.355210000000056]},"properties":{"OBJECTID":213,"Field1":212,"GMID":"C8yv8c8LPf","Dataset":"Basketball Courts","Facility_Name":"Kwai Yi Road Playground","Address":"Kwai Yi Road, Kwai Chung, New Territories","District":"KWAI TSING","Northing":824010.69999999995,"Easting":831227.59999999998,"Latitude":22.35521,"Longitude":114.12794}},{"type":"Feature","id":214,"geometry":{"type":"Point","coordinates":[114.12843000000009,22.371170000000063]},"properties":{"OBJECTID":214,"Field1":213,"GMID":"Q314hahDUn","Dataset":"Basketball Courts","Facility_Name":"Kwok Shui Road Park","Address":"Kwok Shui Road, Tsuen Wan","District":"TSUEN WAN","Northing":825777.5,"Easting":831278.59999999998,"Latitude":22.371169999999999,"Longitude":114.12842999999999}},{"type":"Feature","id":215,"geometry":{"type":"Point","coordinates":[114.15997000000004,22.339990000000057]},"properties":{"OBJECTID":215,"Field1":214,"GMID":"CCi3S5B0Sj","Dataset":"Basketball Courts","Facility_Name":"Kwong Lee Road Playground","Address":"Kwong Lee Road, Sham Shui Po","District":"SHAM SHUI PO","Northing":822324,"Easting":834527,"Latitude":22.33999,"Longitude":114.15997}},{"type":"Feature","id":216,"geometry":{"type":"Point","coordinates":[114.16826000000003,22.304440000000056]},"properties":{"OBJECTID":216,"Field1":215,"GMID":"EHRIsWEa6z","Dataset":"Basketball Courts","Facility_Name":"Kwun Chung Sports Centre","Address":"5/F - 7/F, 17 Bowring Street, Jordon","District":"YAU TSIM MONG","Northing":818387,"Easting":835380,"Latitude":22.30444,"Longitude":114.16826}},{"type":"Feature","id":217,"geometry":{"type":"Point","coordinates":[114.23046000000011,22.31143000000003]},"properties":{"OBJECTID":217,"Field1":216,"GMID":"vwKpuLya1n","Dataset":"Basketball Courts","Facility_Name":"Kwun Tong Recreation Ground","Address":"6 Tsui Ping Road, Kwun Tong","District":"KWUN TONG","Northing":819162.5,"Easting":841789.30000000005,"Latitude":22.311430000000001,"Longitude":114.23045999999999}},{"type":"Feature","id":218,"geometry":{"type":"Point","coordinates":[114.13698000000011,22.339480000000037]},"properties":{"OBJECTID":218,"Field1":217,"GMID":"wpAN17dM0g","Dataset":"Basketball Courts","Facility_Name":"Lai Chi Kok Park","Address":"1 Lai Wan Road, Lai Chi Kok","District":"SHAM SHUI PO","Northing":822267.59999999998,"Easting":832158.80000000005,"Latitude":22.339479999999998,"Longitude":114.13697999999999}},{"type":"Feature","id":219,"geometry":{"type":"Point","coordinates":[114.13821000000007,22.340700000000027]},"properties":{"OBJECTID":219,"Field1":218,"GMID":"mswrFy80b3","Dataset":"Basketball Courts","Facility_Name":"Lai Chi Kok Park Sports Centre","Address":"1 Lai Wan Road, Lai Chi Kok, Kowloon","District":"SHAM SHUI PO","Northing":822403,"Easting":832285,"Latitude":22.340699999999998,"Longitude":114.13821}},{"type":"Feature","id":220,"geometry":{"type":"Point","coordinates":[114.12757000000011,22.345540000000028]},"properties":{"OBJECTID":220,"Field1":219,"GMID":"rM6Mxm4a9J","Dataset":"Basketball Courts","Facility_Name":"Lai King Hill Road Playground","Address":"Lai King Hill Road, Kwai Chung, New Territories","District":"KWAI TSING","Northing":822939.19999999995,"Easting":831189.09999999998,"Latitude":22.34554,"Longitude":114.12757000000001}},{"type":"Feature","id":221,"geometry":{"type":"Point","coordinates":[114.12767000000008,22.349860000000035]},"properties":{"OBJECTID":221,"Field1":220,"GMID":"bbCDTEJM3N","Dataset":"Basketball Courts","Facility_Name":"Lai King Sports Centre","Address":"60 Lai Cho Road, Lai King, Kwai Chung","District":"KWAI TSING","Northing":823417.40000000002,"Easting":831200.09999999998,"Latitude":22.34986,"Longitude":114.12766999999999}},{"type":"Feature","id":222,"geometry":{"type":"Point","coordinates":[114.2388400000001,22.303860000000043]},"properties":{"OBJECTID":222,"Field1":221,"GMID":"pEIqhGVtHw","Dataset":"Basketball Courts","Facility_Name":"Lam Tin South Sports Centre","Address":"170 Pik Wan Road, Lam Tin, Kwun Tong","District":"KWUN TONG","Northing":818325,"Easting":842653,"Latitude":22.30386,"Longitude":114.23884}},{"type":"Feature","id":223,"geometry":{"type":"Point","coordinates":[114.23726000000011,22.288090000000068]},"properties":{"OBJECTID":223,"Field1":222,"GMID":"WftV087o3C","Dataset":"Basketball Courts","Facility_Name":"Lei Yue Mun Basketball Court","Address":"Lei Yue Mun Hoi Pong Road East","District":"LEI YUE MUN","Northing":816578.69999999995,"Easting":842491,"Latitude":22.28809,"Longitude":114.23726000000001}},{"type":"Feature","id":224,"geometry":{"type":"Point","coordinates":[114.23868000000004,22.292060000000049]},"properties":{"OBJECTID":224,"Field1":223,"GMID":"50LZ5tO27J","Dataset":"Basketball Courts","Facility_Name":"Lei Yue Mun Sports Centre","Address":"2/F to 5/F of Lei Yue Mun Municipal Services Building, Yau Tong, Kowloon","District":"KWUN TONG","Northing":817018,"Easting":842637,"Latitude":22.292059999999999,"Longitude":114.23868}},{"type":"Feature","id":225,"geometry":{"type":"Point","coordinates":[113.96508000000006,22.406600000000026]},"properties":{"OBJECTID":225,"Field1":224,"GMID":"XxdrxTnbR3","Dataset":"Basketball Courts","Facility_Name":"Leung Tin Sports Centre","Address":"4/F, Carpark Building, Tin King Estate, Tuen Mun","District":"TUEN MUN","Northing":829716,"Easting":814461,"Latitude":22.406600000000001,"Longitude":113.96508}},{"type":"Feature","id":226,"geometry":{"type":"Point","coordinates":[114.14549000000011,22.287000000000035]},"properties":{"OBJECTID":226,"Field1":225,"GMID":"xozNITntR3","Dataset":"Basketball Courts","Facility_Name":"Li Sing Street Playgroud","Address":"Opposite at No. 2 Li Sing Street, Sai Ying Pun","District":"CENTRAL AND WESTERN","Northing":816456.30000000005,"Easting":833033.80000000005,"Latitude":22.286999999999999,"Longitude":114.14549}},{"type":"Feature","id":227,"geometry":{"type":"Point","coordinates":[114.10593000000006,22.527070000000037]},"properties":{"OBJECTID":227,"Field1":226,"GMID":"56cZYKInhg","Dataset":"Basketball Courts","Facility_Name":"Liu Pok Playground","Address":"Liu Pok Village, Sheung Shui, N.T.","District":"NORTH","Northing":843042.80000000005,"Easting":828969.30000000005,"Latitude":22.527069999999998,"Longitude":114.10593}},{"type":"Feature","id":228,"geometry":{"type":"Point","coordinates":[114.1693600000001,22.278360000000077]},"properties":{"OBJECTID":228,"Field1":227,"GMID":"CnTBxpJdA6","Dataset":"Basketball Courts","Facility_Name":"Lockhart Road Playground","Address":"Lockhart Road near Arsenal Street, Wan Chai","District":"WAN CHAI","Northing":815499.90000000002,"Easting":835493.90000000002,"Latitude":22.278359999999999,"Longitude":114.16936}},{"type":"Feature","id":229,"geometry":{"type":"Point","coordinates":[114.17542000000003,22.278080000000045]},"properties":{"OBJECTID":229,"Field1":228,"GMID":"RWVzP9IL4W","Dataset":"Basketball Courts","Facility_Name":"Lockhart Road Sports Centre","Address":"10/F Lockhart Road Municipal Services Building, 225 Hennessy Road, Wanchai","District":"WAN CHAI","Northing":815468,"Easting":836118,"Latitude":22.278079999999999,"Longitude":114.17542}},{"type":"Feature","id":230,"geometry":{"type":"Point","coordinates":[114.21813000000009,22.320910000000026]},"properties":{"OBJECTID":230,"Field1":229,"GMID":"twwciJw9bM","Dataset":"Basketball Courts","Facility_Name":"Lok Wah Playground","Address":"Lok Wah South Estate, Ngau Tau Kok","District":"KWUN TONG","Northing":820212.30000000005,"Easting":840519,"Latitude":22.320910000000001,"Longitude":114.21813}},{"type":"Feature","id":231,"geometry":{"type":"Point","coordinates":[114.20435000000009,22.347880000000032]},"properties":{"OBJECTID":231,"Field1":230,"GMID":"qeWVISnLlc","Dataset":"Basketball Courts","Facility_Name":"Lok Wah Street Playground","Address":"Lok Wan Street, Tsz Wan Shan","District":"WONG TAI SIN","Northing":823198.19999999995,"Easting":839098.59999999998,"Latitude":22.34788,"Longitude":114.20435000000001}},{"type":"Feature","id":232,"geometry":{"type":"Point","coordinates":[114.02319000000011,22.450300000000027]},"properties":{"OBJECTID":232,"Field1":231,"GMID":"GkGGfEvTGQ","Dataset":"Basketball Courts","Facility_Name":"Long Ping Sports Centre","Address":"Unit 202, 2/F, Long Ping Commercial Centre, Long Ping Estate, Yuen Long","District":"YUEN LONG","Northing":834547,"Easting":820449,"Latitude":22.450299999999999,"Longitude":114.02319}},{"type":"Feature","id":233,"geometry":{"type":"Point","coordinates":[113.95845000000008,22.232690000000048]},"properties":{"OBJECTID":233,"Field1":232,"GMID":"96xxrtWWf2","Dataset":"Basketball Courts","Facility_Name":"Lower Cheung Sha Village Basketball Court","Address":"Lower Cheung Sha Village, Lantau Island","District":"ISLANDS","Northing":810458.40000000002,"Easting":813750.09999999998,"Latitude":22.232690000000002,"Longitude":113.95845}},{"type":"Feature","id":234,"geometry":{"type":"Point","coordinates":[114.21603000000005,22.522440000000074]},"properties":{"OBJECTID":234,"Field1":233,"GMID":"Swk4vFCtJ3","Dataset":"Basketball Courts","Facility_Name":"Luk Keng Village Playground","Address":"Luk Keng, N.T.","District":"NORTH","Northing":842528.09999999998,"Easting":840296.09999999998,"Latitude":22.52244,"Longitude":114.21603}},{"type":"Feature","id":235,"geometry":{"type":"Point","coordinates":[114.17786000000001,22.344220000000064]},"properties":{"OBJECTID":235,"Field1":234,"GMID":"jrYJURz0NA","Dataset":"Basketball Courts","Facility_Name":"Lung Cheung Road Playground","Address":"Beacon Hill Road","District":"KOWLOON CITY","Northing":822792,"Easting":836370,"Latitude":22.34422,"Longitude":114.17786}},{"type":"Feature","id":236,"geometry":{"type":"Point","coordinates":[114.13045000000011,22.504980000000046]},"properties":{"OBJECTID":236,"Field1":235,"GMID":"UcROxefkA9","Dataset":"Basketball Courts","Facility_Name":"Lung Sum Avenue Sports Centre","Address":"155 Jockey Club Road, Sheung Shui","District":"NORTH","Northing":840595,"Easting":831491,"Latitude":22.50498,"Longitude":114.13045}},{"type":"Feature","id":237,"geometry":{"type":"Point","coordinates":[114.1476100000001,22.507210000000043]},"properties":{"OBJECTID":237,"Field1":236,"GMID":"nys8fAyPF0","Dataset":"Basketball Courts","Facility_Name":"Lung Yeuk Tau San Wai Children's Playground","Address":"San Wai Village, Lung Yeuk Tau, Fanling, N.T.","District":"NORTH","Northing":840841.69999999995,"Easting":833257.30000000005,"Latitude":22.507210000000001,"Longitude":114.14761}},{"type":"Feature","id":238,"geometry":{"type":"Point","coordinates":[114.22797000000003,22.419440000000066]},"properties":{"OBJECTID":238,"Field1":237,"GMID":"BoFdhWi6LD","Dataset":"Basketball Courts","Facility_Name":"Ma On Shan Recreation Ground","Address":"1 Hang Hong Street, Ma On Shan","District":"SHA TIN","Northing":831123,"Easting":841529,"Latitude":22.419440000000002,"Longitude":114.22797}},{"type":"Feature","id":239,"geometry":{"type":"Point","coordinates":[114.22956000000011,22.426020000000051]},"properties":{"OBJECTID":239,"Field1":238,"GMID":"rOCazl5GqH","Dataset":"Basketball Courts","Facility_Name":"Ma On Shan Sports Centre","Address":"14 On Chun Street, Ma On Shan, Shatin","District":"SHA TIN","Northing":831852,"Easting":841692,"Latitude":22.426020000000001,"Longitude":114.22956000000001}},